id,name,latitude,longitude,address,provider,connectors,online,kilowatts,twenty_four_hours,last_updated
712020e3-6dc0-436e-b679-453c0ba540a4,Queenstown/Science Park Dr/DNV GL/Lobby,1.290142536,103.7868958,"16, Science Park Dr",Bluecharge,2,TRUE,39,FALSE,2023-06-06 11:41:38.219974
d4b4c89e-7389-4615-a057-3f925ffd5339,Central/Claymore Rd/21,1.3077385,103.8301985,Claymore Road 21,Bluecharge,2,TRUE,22,FALSE,2023-06-06 11:41:38.219974
d56a287f-01f3-4443-81ef-581d2be83ad9,Queenstown/Holland Dr/Blk 18/Deck 1A,1.3118,103.79207,18 Holland Drive,Bluecharge,1,TRUE,36,TRUE,2023-06-06 11:41:38.219974
8ba41be5-100c-42ba-a125-85d00a96687d,Central/Mohamed Sultan Rd/28,1.29288,103.8413,28 Mohamed Sultan Road,Bluecharge,3,TRUE,28,FALSE,2023-06-06 11:41:38.219974
8fb1f32b-d3df-4d79-a120-121c1896ecce,Yishun/Yishun St 22/Blk265,1.4369706,103.8383619,265 Yishun Street 22,Bluecharge,0,TRUE,26,TRUE,2023-06-06 11:41:38.219974
22a30d63-73a2-45b6-9c61-52a000ffaf4e,Tampines/Simei St 1/Blk 108,1.343322,103.951077,108 Simei Street 1,Bluecharge,3,TRUE,27,TRUE,2023-06-06 11:41:38.219974
f766545c-2516-48a1-aac9-70265c7b4652,Ang Mo Kio/Ang Mo Kio Av 4/Blk 157,1.3751449,103.839079,157 Ang Mo Kio Avenue 4,Bluecharge,2,TRUE,34,TRUE,2023-06-06 11:41:38.219974
2a375734-13b0-4bb1-ad97-bce841fa49c0,Tampines/Tampines St 41/Blk 420,1.357537,103.947125,420 Tampines Street 41,Bluecharge,0,TRUE,31,TRUE,2023-06-06 11:41:38.219974
683cef32-5c4e-4e3e-9065-8d98772c9149,Queenstown/Fusionopolis Pl/1/Deck B4,1.29866,103.78748,1 Fusionopolis Place,Bluecharge,4,TRUE,36,TRUE,2023-06-06 11:41:38.219974
58c1a03e-9644-4223-8c67-0e8267f8ef66,Tampines/Simei Street 1/Blk 132,1.3472048,103.9562201,132 Simei Street 1,Bluecharge,0,TRUE,31,TRUE,2023-06-06 11:41:38.219974
3d8382b8-8a3d-4f14-9f80-3dd363a76211,Tampines/Tampines Avenue 4/Blk 902,1.351249,103.939541,902 Tampines Avenue 4,Bluecharge,3,TRUE,34,TRUE,2023-06-06 11:41:38.219974
6823b378-f5f6-4e2f-a536-de3d6ef541bf,Queenstown/11 Biopolis Way/Helios/Deck B2,1.304152,103.791778,11 Biopolis Way,Bluecharge,4,TRUE,41,TRUE,2023-06-06 11:41:38.219974
85350f64-65f8-4506-9a6a-8d813b23f8e3,Yishun/Yishun Ring Road/Blk 853,1.416593,103.836526,850 to 855 Yishun Ring Road,Bluecharge,0,TRUE,31,TRUE,2023-06-06 11:41:38.219974
53298b53-7cd0-4d20-b5cd-f7c5f6b55de4,Geylang/Haig Road/Blk 8,1.31379,103.896451,8 Haig Road,Bluecharge,1,TRUE,23,TRUE,2023-06-06 11:41:38.219974
9a37bdec-c87e-4fad-b3a0-7c7ced6427d9,Clementi/Clementi West Street 1/Blk 602,1.304373,103.766838,Blk 602 Clementi West Street 1,Bluecharge,4,TRUE,39,TRUE,2023-06-06 11:41:38.219974
7c7b61de-d6ff-4fac-aeab-676914307250,Jurong West/Boon Lay Drive/Blk 188,1.344062,103.711245,188 Boon Lay Drive,Bluecharge,3,TRUE,34,TRUE,2023-06-06 11:41:38.219974
f06f63a6-d9df-4aa2-8eef-e7dc99296b50,Bedok/Chai Chee Avenue/Blk 37,1.325325,103.925817,37 Chai Chee Avenue,Bluecharge,2,TRUE,29,TRUE,2023-06-06 11:41:38.219974
1a3f2f08-2e54-45ca-897e-859853872251,Tampines/Tampines Street 22/Blk 274,1.348438,103.950524,Blk 272/275 Tampines Street 22,Bluecharge,0,TRUE,35,TRUE,2023-06-06 11:41:38.219974
2d419054-02ee-40c3-b3d4-aa5dcab70ba7,Bukit Merah/Bukit Merah View/Blk 129A/Deck 2A,1.283532,103.823372,129A Bukit Merah View,Bluecharge,4,TRUE,45,TRUE,2023-06-06 11:41:38.219974
187f37ee-e18b-425b-a360-93be93fa26a0,Bukit Timah/Queens Road/Blk 4/Deck 1A,1.318738,103.808169,4 Queen's Road,Bluecharge,4,TRUE,37,TRUE,2023-06-06 11:41:38.219974
db2390bb-09b4-46d3-9200-00035c532051,Hougang/Hougang Street 61/Blk 688,1.37595,103.885492,Blk 685/691 Hougang Street 61,Bluecharge,0,TRUE,33,TRUE,2023-06-06 11:41:38.219974
4f08c2bc-995f-4111-9f89-4f632560319e,Yishun/Yishun Avenue 3/Blk 769,1.424284,103.833346,773 Yishun Avenue 3,Bluecharge,4,TRUE,30,TRUE,2023-06-06 11:41:38.219974
c0187d3f-d340-4e77-ac98-93c34fc25ed2,Yishun/Yishun Ring Road/Blk 809,1.416833,103.83048,800-812 Yishun Ring Road,Bluecharge,0,TRUE,31,TRUE,2023-06-06 11:41:38.219974
b6b88dca-d4f1-4ac8-bef3-05adb40b5eea,Geylang/Eunos Crescent/Blk 31A/Deck 1A,1.320225,103.9017609,31A Eunos Crescent,Bluecharge,4,TRUE,38,TRUE,2023-06-06 11:41:38.219974
4925b5b8-af47-4abf-a1e1-51d9d97e1a4c,Clementi/West Coast Road/Blk 708,1.306052,103.761812,704-714 West Coast Road,Bluecharge,2,TRUE,32,TRUE,2023-06-06 11:41:38.219974
56243bb7-d8e5-4563-b900-b265350a207b,Bedok/Bedok South Avenue 3/Behind Blk 69,1.319455,103.943098,69 Bedok South Avenue 3,Bluecharge,3,TRUE,40,TRUE,2023-06-06 11:41:38.219974
c699029b-ef44-409e-86d5-e299e71b9937,Kembangan/21 Jalan Masjid/Beside Kembangan Plaza,1.320397,103.912296,21 Jalan Masjid,Bluecharge,2,TRUE,48,TRUE,2023-06-06 11:41:38.219974
9f158971-e283-4edb-b939-78400c268d62,Bukit Batok/Bukit Batok Street 52/Blk 537,1.355013,103.751187,537 Bukit Batok Street 52,Bluecharge,2,TRUE,41,TRUE,2023-06-06 11:41:38.219974
cfa36fc2-d07d-4543-ad2b-cba2342b5e19,Jurong East/8 Jurong Town Hall Road/JTC Summit/Deck B2,1.33115,103.74184,8 Jurong Town Hall Road,Bluecharge,3,TRUE,54,TRUE,2023-06-06 11:41:38.219974
87c82e25-8987-4b5d-a2f1-971f9acd43ba,Ang Mo Kio/Ang Mo Kio Avenue 9/Blk 627,1.382052,103.841393,627 Ang Mo Kio Avenue 9,Bluecharge,2,TRUE,38,TRUE,2023-06-06 11:41:38.219974
f187fb59-76e2-44ae-a1dd-27269434df30,Punggol/Punggol Place/Blk 273/Deck 1,1.402703,103.901963,273 Punggol Place,Bluecharge,0,TRUE,36,TRUE,2023-06-06 11:41:38.219974
80eab064-1e8a-43e3-bae9-b629ee7f8da7,Tampines/Tampines Street 91/Blk 921A/Deck 1A,1.347284,103.941371,921A Tampines Street 91,Bluecharge,4,TRUE,44,TRUE,2023-06-06 11:41:38.219974
3605a94c-21c2-44cc-b236-bb0a4fcd35e1,Jurong East/Jurong East Street 21/Blk 230,1.341813,103.737565,215-230 Jurong East Street 21,Bluecharge,2,TRUE,41,TRUE,2023-06-06 11:41:38.219974
29355372-664f-4836-b9bc-51e08609baf5,Ang Mo Kio/Ang Mo Kio Avenue 6/Blk 123,1.370392,103.844376,123 Ang Mo Kio Avenue 6,Bluecharge,2,TRUE,38,TRUE,2023-06-06 11:41:38.219974
330da7d3-e9f3-49c9-a7f4-62764ccadd8d,Jurong West/Jurong West Street 81/Blk 854A/Deck 1A,1.347775,103.696495,854A Jurong West Street 81,Bluecharge,2,TRUE,50,TRUE,2023-06-06 11:41:38.219974
e24a18f9-91b1-4a7d-9d3a-9b3547985bee,Clementi/Clementi Avenue 2/Blk 334/Beside Caltex,1.314724,103.768296,334 Clementi Avenue 2,Bluecharge,4,TRUE,48,TRUE,2023-06-06 11:41:38.219974
e9da561e-3ab8-4778-bd01-814e7d2a92f0,Bukit Batok/Bukit Batok Street 34/Blk 346,1.362466,103.750963,346 Bukit Batok Street 34,Bluecharge,1,TRUE,41,TRUE,2023-06-06 11:41:38.219974
5dcb26c1-f30d-4197-82d6-b0a982120c05,Tampines/Tampines Street 83/Blk 851,1.353051,103.935061,851 Tampines Street 83,Bluecharge,0,TRUE,35,TRUE,2023-06-06 11:41:38.219974
f84e59a5-c990-4af0-8b33-2269e217ff38,Serangoon/Upper Serangoon View/Blk 476/Deck 3,1.37738,103.903721,476 Upper Serangoon View,Bluecharge,1,TRUE,45,TRUE,2023-06-06 11:41:38.219974
3e8be0d7-69cf-4beb-b324-fcc658abe8da,Bishan/Bishan Street 13/Blk 186,1.349585,103.852838,186 Bishan Street 13,Bluecharge,4,TRUE,31,TRUE,2023-06-06 11:41:38.219974
a86c4aa7-7ae7-4113-804b-c6857a01968d,Geylang/Ubi Avenue 1/Blk 326,1.327319,103.904146,326 Ubi Avenue 1,Bluecharge,0,TRUE,28,TRUE,2023-06-06 11:41:38.219974
803a1d9b-0665-4168-8c26-054600322f76,Geylang/52 Sims Place/Along Sims Place,1.316531,103.880106,52 Sims Place,Bluecharge,2,TRUE,38,TRUE,2023-06-06 11:41:38.219974
8419a992-5c81-4110-9fb6-550ecd5e85e2,Marine Parade/Across 343 Telok Karau Road/Beside St'Patrick's Court,1.308605,103.912432,Across 343 Telok Kurau Road,Bluecharge,0,TRUE,67,TRUE,2023-06-06 11:41:38.219974
36569319-de4b-4683-a30c-16f6c780d02e,Hougang/Hougang Street 92/Blk 941A/Deck 1A,1.374287,103.87912,941A Hougang Street 92,Bluecharge,1,TRUE,42,TRUE,2023-06-06 11:41:38.219974
6e0b26b6-efc3-48d9-b1cd-be9da018079d,Jurong West/Jurong West Street 91/Blk 903,1.339625,103.686256,903 Jurong West Street 91,Bluecharge,0,FALSE,41,TRUE,2023-06-06 11:41:38.219974
4811d9e2-dfbd-4a6b-b4e5-d681608073ad,Toa Payoh/Potong Pasir Avenue 1/Blk 117,1.336558,103.863104,117 Potong Pasir Avenue 1,Bluecharge,4,TRUE,39,TRUE,2023-06-06 11:41:38.219974
f6d55c80-3e3a-485d-adaa-254224e06de4,Yishun/Yishun Ring Road/Blk 165,1.4355487,103.8320274,165 Yishun Ring Road,Bluecharge,2,TRUE,31,TRUE,2023-06-06 11:41:38.219974
ffb3c3fc-b7ae-46bc-a10d-ebf2f97a2ab3,Punggol/Punggol Walk/Blk 213/Deck 1A,1.400134,103.898428,213 Punggol Walk,Bluecharge,0,TRUE,36,TRUE,2023-06-06 11:41:38.219974
a1f3a982-6c98-40a7-b7dc-a788f0651d43,Hougang/Hougang Avenue 2/Blk 707,1.366507,103.888389,707 Hougang Avenue 2,Bluecharge,2,TRUE,32,TRUE,2023-06-06 11:41:38.219974
55c547f1-b9a2-4d67-998a-f51077d17eef,Bedok/Bedok Reservoir Road/Blk 609,1.33135,103.912391,609 Bedok Reservoir Road,Bluecharge,1,TRUE,34,TRUE,2023-06-06 11:41:38.219974
8152ac85-d430-41ea-a075-d451632886d7,Jurong East/Jurong East Street 13/Blk 116,1.339583,103.734451,116 Jurong East Street 13,Bluecharge,0,TRUE,41,TRUE,2023-06-06 11:41:38.219974
518f6064-dc02-44ab-9c6f-ddb6a14ae6ef,Bukit Batok/Bukit Batok East Avenue 5/Blk 241A/Deck 1A,1.350931,103.755227,241A Bukit Batok East Avenue 5,Bluecharge,1,TRUE,54,TRUE,2023-06-06 11:41:38.219974
74eac25b-849a-4cf7-b3f9-0cb140232b65,Hougang/Hougang Street 31/Blk 373A/Deck B1B,1.362366,103.890053,373A Hougang Street 31,Bluecharge,1,TRUE,43,TRUE,2023-06-06 11:41:38.219974
7c56aa60-49a7-4885-8f42-23e88e6bc841,Pasir Ris/Pasir Ris Drive 6/Blk 417,1.372102,103.955033,417 Pasir Ris Drive 6,Bluecharge,1,TRUE,35,TRUE,2023-06-06 11:41:38.219974
66e7a184-ef20-4ea6-a65a-3c2df6c7a3cd,Serangoon/Serangoon Avenue 4/Blk 212,1.356934,103.873229,212 Serangoon Avenue 4,Bluecharge,2,TRUE,36,TRUE,2023-06-06 11:41:38.219974
f500a539-6dca-49e1-9777-5f40d4e6dacf,Hougang/Hougang Avenue 9/Blk 966A/Deck 1A,1.377891,103.877869,966A Hougang Avenue 9,Bluecharge,3,TRUE,41,TRUE,2023-06-06 11:41:38.219974
70167f52-ec33-4bb1-9310-99202c64b928,Sengkang/Anchorvale Street/Blk 329/Deck 1A,1.39634,103.889296,329 Anchorvale Street,Bluecharge,1,TRUE,42,TRUE,2023-06-06 11:41:38.219974
e670bebd-c667-49a8-877a-6ef24b0bc516,Choa Chu Kang/Choa Chu Kang Crescent/Blk 678A/Deck 1B,1.401978,103.74481,678A Choa Chu Kang Crescent,Bluecharge,2,TRUE,53,TRUE,2023-06-06 11:41:38.219974
c9ec55d7-c8c0-4b71-932a-6fb545c570a8,Ang Mo Kio/Ang Mo Kio Avenue 4/Blk 114,1.372293,103.836312,114 Ang Mo Kio Avenue 4,Bluecharge,0,TRUE,38,TRUE,2023-06-06 11:41:38.219974
f2fbca81-5737-4a34-9b7f-b8acbe244f50,Kallang/Bendemeer Road/Blk 10/Deck 1A,1.315203,103.860333,10 Bendemeer Road,Bluecharge,4,TRUE,37,TRUE,2023-06-06 11:41:38.219974
97bc08a8-b880-46be-8ab0-b9352a6ee57b,Ang Mo Kio/Ang Mo Kio Avenue 6/Blk 647,1.378898,103.843833,647 Ang Mo Kio Avenue 6,Bluecharge,3,TRUE,38,TRUE,2023-06-06 11:41:38.219974
74799e82-f479-4099-8e63-c481e08908fb,Bedok/Bedok North Street 3/Blk 534,1.333285,103.92394,534 Bedok North Street 3,Bluecharge,0,TRUE,34,TRUE,2023-06-06 11:41:38.219974
fa304626-4b9e-4ddf-bab1-ca5e09003b33,Queenstown/Commonwealth Drive/Blk 117 (Beside Blk 117 Open Space Carpark),1.306972,103.799566,117 Commonwealth Drive,Bluecharge,4,TRUE,73,TRUE,2023-06-06 11:41:38.219974
ffa622c7-4683-4f1c-8e68-23640325fb01,Kallang/Jalan Rajah/Blk 103,1.327411,103.852514,103 Jalan Rajah,Bluecharge,2,TRUE,27,TRUE,2023-06-06 11:41:38.219974
5f7c6809-13b0-4b14-b0cc-8ad7bc84833a,Bukit Batok/Bukit Batok Street 33/Blk 319,1.361125,103.746545,319 Bukit Batok Street 33,Bluecharge,3,TRUE,41,TRUE,2023-06-06 11:41:38.219974
8e681bc4-115f-4b93-8523-82b0ea3c9990,Bishan/Bishan Street 12/Blk 112,1.346756,103.848871,112 Bishan Street 12,Bluecharge,3,TRUE,31,TRUE,2023-06-06 11:41:38.219974
5d20b732-1dc5-4580-9c1b-cd60812bb928,Sengkang/Fernvale Street/Blk 472/Deck 1A,1.396952,103.881727,472 Fernvale Street,Bluecharge,0,TRUE,40,TRUE,2023-06-06 11:41:38.219974
845245bd-4bd5-43fe-93cd-41f2671784aa,Yishun/Yishun Street 51/Blk 513/Deck 2,1.415984,103.844221,513 Yishun Street 51,Bluecharge,0,TRUE,38,TRUE,2023-06-06 11:41:38.219974
479fcf92-8015-4fe0-9168-9da1c4a7e51e,Sengkang/Compassvale Road/Blk 203/Deck 1A,1.387328,103.895393,203 Compassvale Road,Bluecharge,1,TRUE,41,TRUE,2023-06-06 11:41:38.219974
4cbbb7ff-27a2-408e-ab14-eb82d9eed20f,Serangoon/Serangoon North Avenue 4/Blk 512A/Deck 1B,1.371005,103.8751,512A Serangoon North Avenue 4,Bluecharge,4,TRUE,51,TRUE,2023-06-06 11:41:38.219974
7cf2d372-8308-4158-a08d-beda18f25c7b,Ang Mo Kio/Ang Mo Kio Street 51/Blk 590/Deck 1A,1.371634,103.853064,590 Ang Mo Kio Street 51,Bluecharge,0,TRUE,47,TRUE,2023-06-06 11:41:38.219974
969c44e1-61e6-4a59-af28-380bba22a63f,Sengkang/Compassvale Walk/Blk 236A/Deck 1B,1.390343,103.900021,236A Compassvale Walk,Bluecharge,0,TRUE,42,TRUE,2023-06-06 11:41:38.219974
7a8b726b-9e61-457a-9067-41133409e46e,Queenstown/Ghim Moh Road/Blk 2A/Deck 1,1.312774,103.787393,2A Ghim Moh Road,Bluecharge,4,TRUE,38,TRUE,2023-06-06 11:41:38.219974
1ccba432-8a0b-4c96-9e72-938d061c0c20,Central/9 Raffles Place/Republic Plaza/Level 4,1.283658,103.850455,"9 Raffles Place, Republic Plaza",Bluecharge,4,TRUE,46,TRUE,2023-06-06 11:41:38.219974
d3b3e4cd-05e9-4641-a0cb-e54243b62ef6,Choa Chu Kang/Choa Chu Kang Avenue 4/Lot one/Deck B2,1.38525,103.744922,21 Choa Chu Kang Avenue 4,Bluecharge,0,TRUE,52,TRUE,2023-06-06 11:41:38.219974
cd621e30-dc8f-49ae-9937-cd5394c8f694,Sentosa/50 Beach View/Basement/Beach Station(Near Beach Station Escalator),1.251171,103.819188,50 Beach View,Bluecharge,4,TRUE,74,TRUE,2023-06-06 11:41:38.219974
a7424bc1-3d3c-4400-85c5-3e60f0aad66c,Central/1 Esplanade Drive/Basement 1/Lift Lobby B,1.289691,103.85577,1 Esplanade Drive,Bluecharge,4,TRUE,49,TRUE,2023-06-06 11:41:38.219974
899a7b04-7f2e-45c7-937e-97d14cedbc94,Sentosa/1 Cove Avenue/Sentosa Cove/Blk B/Level 2,1.247741,103.840256,"1 Cove Avenue, Sentosa Cove",Bluecharge,2,TRUE,48,TRUE,2023-06-06 11:41:38.219974
c7b4ab67-95ed-45f2-a730-708793fcddcf,Central/3E River Valley Road/Clark Quay Blk E/Level 3,1.290715,103.846146,3E River Valley Road,Bluecharge,4,TRUE,53,TRUE,2023-06-06 11:41:38.219974
b52334d7-6c21-489c-a5f2-88768caf152c,Kallang/Cambridge Road/Blk 43 (Opposite NTUC),1.314899,103.849479,43 Cambridge Road,Bluecharge,4,TRUE,45,TRUE,2023-06-06 11:41:38.219974
48e5286b-a642-4a79-8ae4-87f20aef576e,Ang Mo Kio/Ang Mo Kio Avenue 4/Blk 110,1.370557,103.837923,110 Ang Mo Kio Avenue 4,Bluecharge,3,TRUE,38,TRUE,2023-06-06 11:41:38.219974
18d0fd48-d262-44dc-b3a6-d1985e05ddb7,Yishun/Yishun Ring Road/Blk 781,1.422343,103.832121,781 Yishun Ring Road,Bluecharge,4,TRUE,31,TRUE,2023-06-06 11:41:38.219974
b6d01cfa-e870-467d-9079-4d24b5705e1d,Tampines/Simei Road/Blk 155,1.344756,103.958393,155 Simei Road,Bluecharge,1,TRUE,27,TRUE,2023-06-06 11:41:38.219974
fab09e1a-acfb-4f09-a11e-a94fd40ba261,Bukit Timah/170 Upper Bukit Timah Road (Infront Bukit Timah Shopping Centre),1.343312,103.775637,170 Upper Bukit Timah Road,Bluecharge,4,TRUE,76,TRUE,2023-06-06 11:41:38.219974
f1c513d4-e9ac-43d4-ad00-edb3eaa19e1e,Hougang/Hougang Avenue 6/Blk 524,1.373931,103.890352,524 Hougang Avenue 6,Bluecharge,1,TRUE,32,TRUE,2023-06-06 11:41:38.219974
d0d6ac8d-7db2-4540-944f-28eac3760f93,Ang Mo Kio/Ang Mo Kio Avenue 10/Blk 449,1.36805,103.8558,449 Ang Mo Kio Avenue 10,Bluecharge,4,TRUE,39,TRUE,2023-06-06 11:41:38.219974
59ee8fba-0bcc-4cf5-9cf3-0c638fb7909f,Tampines/Tampines Street 72/Blk 742A/Deck 1A,1.359905,103.934176,742A Tampines Street 72,Bluecharge,0,TRUE,44,TRUE,2023-06-06 11:41:38.219974
17b638e4-42ad-4336-aeaa-de2228b98a67,Novena/Tan Tock Seng Hospital/Basement 4/Near Lift Lobby D,1.321282,103.84588,11 Jalan Tan Tock Seng,Bluecharge,3,TRUE,58,TRUE,2023-06-06 11:41:38.219974
8bf17ba7-7378-4120-a78b-793d095421ea,Ang Mo Kio/Ang Mo Kio Avenue 8/Blk 510,1.373288,103.849485,510 Ang Mo Kio Avenue 8,Bluecharge,0,TRUE,38,TRUE,2023-06-06 11:41:38.219974
370bb1a0-001b-46c3-bf1e-c24e4f0b37eb,Ang Mo Kio/Ang Mo Kio Avenue 10/Blk 559,1.371022,103.857277,559 Ang Mo Kio Avenue 10,Bluecharge,4,TRUE,39,TRUE,2023-06-06 11:41:38.219974
d398644b-60de-442f-aeba-378488ad3ce7,Pasir Ris/Pasir Ris Street 12/Blk 108A/Deck 1A,1.367987,103.956949,108A Pasir Ris Street 12,Bluecharge,0,TRUE,46,TRUE,2023-06-06 11:41:38.219974
a1f02c5b-7ecb-4301-b26d-14627617fdc2,Woodlands/Woodlands Circle/Blk 747A/Deck 1A,1.443332,103.795599,747A Woodlands Circle,Bluecharge,3,TRUE,43,TRUE,2023-06-06 11:41:38.219974
7d58f93b-7886-4845-8fe0-4859c5fe0161,Kallang/Saint George's Road/Blk 22,1.32537,103.862659,22 Saint George's Road,Bluecharge,4,TRUE,34,TRUE,2023-06-06 11:41:38.219974
50f2fc00-d11a-4aa7-a11c-b673386c4e7c,Punggol/Edgedale Plains/Blk 172/Deck 1A,1.39557,103.911788,172 Edgedale Plains,Bluecharge,0,TRUE,39,TRUE,2023-06-06 11:41:38.219974
4bef3a21-4b94-4af5-b761-5482a719ab29,Bukit Panjang/Petir Road/Blk 140,1.375471,103.769068,140 Petir Road,Bluecharge,0,TRUE,32,TRUE,2023-06-06 11:41:38.219974
30009293-cbd2-4d6c-b906-91f77bc3a303,Jurong East/Jurong East Street 32/Blk 307,1.346612,103.734402,307 Jurong East Street 32,Bluecharge,2,TRUE,41,TRUE,2023-06-06 11:41:38.219974
498e47d5-f990-4571-976e-f646f8b694bc,Bedok/Chai Chee Street/Blk 53,1.328941,103.921295,53 Chai Chee Street,Bluecharge,0,TRUE,29,TRUE,2023-06-06 11:41:38.219974
0f608140-738d-4996-8d11-7e884bb00a64,Bedok/Bedok North Road/Blk 425,1.329159,103.92944,425 Bedok North Road,Bluecharge,1,TRUE,30,TRUE,2023-06-06 11:41:38.219974
f0527995-0a21-4032-b32f-bbc82d7992ea,Tampines/Tampines Street 11/Blk 107,1.348142,103.947926,107 Tampines Street 11,Bluecharge,0,TRUE,35,TRUE,2023-06-06 11:41:38.219974
188db8c5-d7b5-475d-bfbc-8449ca02167f,Queenstown/Ghim Moh Link/Blk 24/Deck 1B,1.308908,103.785607,24 Ghim Moh Link,Bluecharge,3,TRUE,39,TRUE,2023-06-06 11:41:38.219974
df3b4451-2e5e-475e-b12e-636a06f59c43,Jurong West/Yung An Road/Blk 364/Deck 1A,1.337184,103.720457,364 Yung An Road,Bluecharge,0,TRUE,40,TRUE,2023-06-06 11:41:38.219974
72808615-8e4d-474b-aba0-0be426a03b6f,Clementi/Clementi Avenue 3/Blk 440/Deck 1A,1.31642,103.76392,440 Clementi Avenue 3,Bluecharge,0,FALSE,42,TRUE,2023-06-06 11:41:38.219974
4064a22f-cb3c-431f-af7e-7f33f4e84680,Yishun/Yishun Street 31/Blk 333/Deck 1A,1.43154,103.844951,333 Yishun Street 31,Bluecharge,0,TRUE,39,TRUE,2023-06-06 11:41:38.219974
e5c91c8e-bc95-485c-a44c-1ad0eae914ce,Pasir Ris/Pasir Ris Street 71/Blk 762A/Deck 1A,1.376083,103.9333,762A Pasir Ris Street 71,Bluecharge,4,TRUE,46,TRUE,2023-06-06 11:41:38.219974
fab4ac3a-e583-4b34-a36d-2fccd1308ae4,Bukit Merah/Bukit Purmei Road/Blk 109,1.273803,103.8258,109 Bukit Purmei Road,Bluecharge,3,TRUE,37,TRUE,2023-06-06 11:41:38.219974
85058fe5-61ae-4690-b67f-6ffcba3c18df,Toa Payoh/Lorong 8 Toa Payoh/Blk 213,1.341068,103.8551,213 Lorong 8 Toa Payoh,Bluecharge,0,TRUE,36,TRUE,2023-06-06 11:41:38.219974
3210bfee-3503-487b-90cb-f856a2ae934d,Choa Chu Kang/Choa Chu Kang Central/Blk 205,1.381051,103.7481,205 Choa Chu Kang Central,Bluecharge,0,TRUE,43,TRUE,2023-06-06 11:41:38.219974
e881dcb1-5a38-448a-bec3-c084dc466a4f,Tampines/Tampines Street 22/Blk 299A,1.350399,103.95424,299A Tampines Street 22,Bluecharge,0,TRUE,36,TRUE,2023-06-06 11:41:38.219974
e2002aca-095f-4025-9c43-09d420592629,Clementi/Clementi West Street 2/Blk 727,1.304208,103.763558,727 Clementi West Street 2,Bluecharge,2,TRUE,39,TRUE,2023-06-06 11:41:38.219974
be6b40d2-d76b-4f2c-93a1-52d892091c4d,Bukit Merah/Henderson Road/Blk 96/Deck 1A,1.287793,103.821375,96 Henderson Road,Bluecharge,0,FALSE,41,TRUE,2023-06-06 11:41:38.219974
94dd8f11-d416-4aa4-ac97-516fc26138bf,Bukit Batok/Bukit Batok West Avenue 5/Blk 436/Deck 1A,1.358769,103.739499,436 Bukit Batok West Avenue 5,Bluecharge,0,TRUE,53,TRUE,2023-06-06 11:41:38.219974
e644e8af-f9bc-4fa2-9ec2-1c03443532ad,Tampines/Tampines Avenue 8/Blk 879C/Deck 1A,1.351144,103.928663,879C Tampines Avenue 8,Bluecharge,0,TRUE,43,TRUE,2023-06-06 11:41:38.219974
8d83ac82-45f0-4ce8-b38a-720ddef9a8d1,Punggol/Punggol Field/Blk 204/Deck B1,1.398494,103.90305,204 Punggol Field,Bluecharge,0,TRUE,37,TRUE,2023-06-06 11:41:38.219974
2be19ca6-6702-490b-94d3-a4b652a7e25a,Bukit Merah/Telok Blangah Rise/Blk 32,1.273125,103.82106,32 Telok Blangah Rise,Bluecharge,4,TRUE,37,TRUE,2023-06-06 11:41:38.219974
f537831a-98b8-48ce-b151-b239c398faea,Bedok/Bedok North Street 2/Blk 129,1.327761,103.93846,124 Bedok North Street 2,Bluecharge,1,TRUE,34,TRUE,2023-06-06 11:41:38.219974
973684dc-9957-4f82-b7ef-ad5823845030,Marine Parade/Marine Terrace/Blk 59,1.305782,103.914158,59 Marine Terrace,Bluecharge,0,TRUE,35,TRUE,2023-06-06 11:41:38.219974
346e84ca-e3c7-47fa-bf96-8ef8d29da275,Central/109 North Bridge Road/Funan Mall/Basement 3/Lift Lobby B,1.291599,103.849823,109 North Bridge Road,Bluecharge,4,TRUE,64,TRUE,2023-06-06 11:41:38.219974
0fc2ff53-dd82-4942-8e2b-2c4b2e446ac1,Central/252 North Bridge Road/Raffles City/Deck B3,1.2939583,103.8526163,252 North Bridge Road,Bluecharge,4,TRUE,50,FALSE,2023-06-06 11:41:38.219974
0017e148-ebec-49f4-bd6c-4d7b5428e4da,Changi Airport Terminal 3,1.356457301,103.9865064,"65 Airport Boulevard, Singapore 819663",SPMobility,6,TRUE,25,FALSE,2023-06-06 11:41:38.219974
28919d51-9f48-4854-b685-42de5f9b50ed,Asia Green,1.356211028,103.9416687,"7 Tampines Grande, Singapore 528736",SPMobility,3,TRUE,10,FALSE,2023-06-06 11:41:38.219974
5c67ff84-10c2-46ae-b6be-a4eb9ec381a7,I12 Katong,1.306001319,103.9050741,"112 East Coast Road, Singapore 428802",SPMobility,4,TRUE,10,FALSE,2023-06-06 11:41:38.219974
022195a2-f5d1-4fb9-add3-8abcf63f45de,Marina Collection,1.244411641,103.8398206,13-17 Cove Drive Singapore 098327,SPMobility,2,TRUE,17,FALSE,2023-06-06 11:41:38.219974
1f53174f-4de7-4070-8a27-f55552fb37fe,Riverplace,1.2899956,103.8408745,60 Havelock Road Singapore 169658,SPMobility,2,TRUE,10,FALSE,2023-06-06 11:41:38.219974
bf3420e8-d685-475b-81fc-491e3380dd29,Martin Place Residences,1.294386671,103.8382968,2 Martin Place Singapore 237988,SPMobility,3,TRUE,23,FALSE,2023-06-06 11:41:38.219974
2c37b720-dfc8-4f06-afe5-260d2dff8c1c,South Beach Commercial,1.294456364,103.8561695,38 Beach Road Singapore 189762,SPMobility,4,TRUE,22,FALSE,2023-06-06 11:41:38.219974
21acb73e-fa3d-4c9b-90b6-e8fe09277421,South Beach Residential,1.294456364,103.8561695,38 Beach Road Singapore 189762,SPMobility,2,TRUE,23,FALSE,2023-06-06 11:41:38.219974
0bfd1339-272c-40af-ad58-4dd3bddd12d3,Asia Square Tower 2,1.278354467,103.8511218,"12 Marina View, Singapore 018961",SPMobility,4,TRUE,19,FALSE,2023-06-06 11:41:38.219974
cac9ba2d-7367-4f5e-8e73-de21cf03fabe,Park Royal Kitchener,1.310692794,103.8556902,"181 Kitchener Road, Singapore 208533",SPMobility,4,TRUE,20,TRUE,2023-06-06 11:41:38.219974
8cf9655c-c0a6-4b50-9c2a-8db27f5518e0,Pan Pacific Serviced Suites Beach Road,1.299778225,103.8599838,"7500B Beach Road, Singapore 199592",SPMobility,2,TRUE,38,FALSE,2023-06-06 11:41:38.219974
f7b73e74-52cf-424e-a815-789ccb5f41da,Capitaspring,1.284193221,103.8502163,"88 Market St, Singapore 048948",SPMobility,4,TRUE,12,FALSE,2023-06-06 11:41:38.219974
e2faf3bb-9a0d-4222-907a-5cd0ca5fb082,One Degree 15 (Private access only),1.245909609,103.8397942,"11 Cove Drive, #01-01, Sentosa Cove, Singapore 098497",SPMobility,4,TRUE,35,TRUE,2023-06-06 11:41:38.219974
b7c5c9c2-9bf5-47f7-82f1-a6eb953b15c9,Caltex Dunearn,1.319029097,103.8331751,"130 Dunearn Rd, Singapore 309436",SPMobility,1,TRUE,14,TRUE,2023-06-06 11:41:38.219974
90f5bc6c-db13-4a04-ab9b-25c23bc0721b,Tampines Plaza 2,1.3535029,103.9427497,"5 Tampines Central 1, Singapore 529541",SPMobility,4,TRUE,16,FALSE,2023-06-06 11:41:38.219974
d647c8b6-d343-4c4a-ab64-52b48411791d,Zhongshan Mall,1.327309246,103.8463667,"20 Ah Hood Rd, Singapore 329984",SPMobility,3,TRUE,14,FALSE,2023-06-06 11:41:38.219974
4f6bc6c5-102e-4536-991a-7520d0fdb100,Tekka Place,1.30533125,103.8514154,"2 Serangoon Rd, Singapore 218227",SPMobility,8,TRUE,11,FALSE,2023-06-06 11:41:38.219974
0dd22d43-f0bc-4e68-805e-dfeaab2b0546,Sheraton Towers,1.312049646,103.8365405,"39 Scotts Rd, Singapore 228230",SPMobility,4,TRUE,15,FALSE,2023-06-06 11:41:38.219974
8be21f34-e56f-435a-a1ec-6a2a1c3e6fc1,Mapletree Business City,1.274604618,103.7996748,"10 Pasir Panjang Rd, Singapore 117438",SPMobility,4,TRUE,23,FALSE,2023-06-06 11:41:38.219974
5d62869e-409e-4964-8403-60271e13f27e,Marina Square,1.291432278,103.857592,"6 Raffles Blvd, Marina Square, Singapore 039594",SPMobility,6,TRUE,13,FALSE,2023-06-06 11:41:38.219974
374086a0-3243-4459-93c7-d6a70f3eb421,Vantage,1.289876243,103.8069891,"305 Alexandra Road, Singapore 159942",SPMobility,4,TRUE,7,FALSE,2023-06-06 11:41:38.219974
593c7a18-83bc-4055-9924-36bd16a4da47,Caltex Changi,1.316608201,103.9002016,"78 Changi Rd, Singapore 419714",SPMobility,2,TRUE,13,TRUE,2023-06-06 11:41:38.219974
4ec27198-8d14-4c84-b889-72b478a90649,Jewel Changi Airport,1.360433441,103.9897486,"78 Airport Blvd., Singapore 819666",SPMobility,6,TRUE,20,FALSE,2023-06-06 11:41:38.219974
6e34a1a8-8f7b-4ad8-b1c1-179b0541d83b,Techlink,1.335888192,103.9056257,"31 Kaki Bukit Rd 3, Singapore 417818",SPMobility,4,TRUE,8,FALSE,2023-06-06 11:41:38.219974
5397df2d-f68b-4060-a725-e2c083858489,Shaw Centre,1.306550624,103.8318687,"1 Scotts Rd, Singapore 228208",SPMobility,4,TRUE,11,FALSE,2023-06-06 11:41:38.219974
fd6bce44-8a7a-4405-b90b-f2c76731e5fd,Caltex Jurong Spring,1.349593551,103.7147572,"100 Jurong West Ave 1, Singapore 649519",SPMobility,1,TRUE,20,TRUE,2023-06-06 11:41:38.219974
da396582-8282-4cc4-99f0-34176c59bd17,Eightrium @ Changi Business Park,1.338116865,103.9644189,"15A Changi Business Park Central 1, Singapore 486035",SPMobility,4,TRUE,32,FALSE,2023-06-06 11:41:38.219974
4661f301-f101-4477-b6ab-b724693d3de7,PLQ Mall,1.317678563,103.8927715,"10 Paya Lebar Road, PLQ Mall, Paya Lebar Quarter, 409057",SPMobility,3,TRUE,8,FALSE,2023-06-06 11:41:38.219974
2dd0f883-ee62-414d-a6e8-c8c2280c092f,Grand Park City Hall,1.292619473,103.8501753,"10 Coleman St, Singapore 179809",SPMobility,4,TRUE,20,FALSE,2023-06-06 11:41:38.219974
acd28265-0612-44f0-921a-1ce3e123da16,Chinese Swimming Club,1.300459633,103.9005533,"21 Amber Rd, Singapore 439870",SPMobility,3,TRUE,21,TRUE,2023-06-06 11:41:38.219974
b3198396-d048-4be2-83e9-5d4999001b94,IMM,1.335094273,103.7467215,"2 Jurong East Street 21, Singapore 609601",SPMobility,4,TRUE,3,TRUE,2023-06-06 11:41:38.219974
c4639822-640c-4959-bd06-0e14f2a24bf2,Tanah Merah Ferry Terminal,1.314499993,103.9884705,"50 Tanah Merah Ferry Rd, Singapore 498833",SPMobility,5,TRUE,26,FALSE,2023-06-06 11:41:38.219974
e0ab54a9-b0ba-4474-a66b-47f7df731685,Caltex Chong Pang,1.430536692,103.8298407,"3700 Yishun Ring Rd, Singapore 768690",SPMobility,1,TRUE,17,TRUE,2023-06-06 11:41:38.219974
70487bb6-5f30-4476-94d4-60b1d5a4ef26,Kinex,1.314925893,103.894852,"11 Tanjong Katong Rd, Singapore 437157",SPMobility,4,TRUE,5,FALSE,2023-06-06 11:41:38.219974
e0d79c29-3df5-4cb5-9707-3144886bdb0f,Paya Lebar Square,1.319416549,103.8926072,"60 Paya Lebar Rd, Singapore 409051",SPMobility,4,TRUE,17,FALSE,2023-06-06 11:41:38.219974
ce017b24-b562-4668-ad8a-4f018ba07575,Techview,1.336375166,103.9097352,"1 Kaki Bukit View, Singapore 415941",SPMobility,4,TRUE,8,FALSE,2023-06-06 11:41:38.219974
47a6c6ac-26f8-459e-8f75-e3478ba46e5d,Autobacs Ubi,1.33234781,103.8960646,"10 Ubi View, Singapore 408543",SPMobility,4,TRUE,12,TRUE,2023-06-06 11:41:38.219974
d44383a0-8ec0-4c1a-8015-93f97c17b041,Plaza 8 CBP,1.333869784,103.9654734,"1 Changi Business Park Crescent, Changi Business Park, 486025",SPMobility,4,TRUE,11,FALSE,2023-06-06 11:41:38.219974
52213e5a-972c-4a20-9cb3-586c3b9c8fc4,Tampines Plaza 1,1.3535029,103.9427497,"5 Tampines Central 1, Singapore 529541",SPMobility,4,TRUE,16,FALSE,2023-06-06 11:41:38.219974
ff4ba4e8-1b50-4912-8027-a93612d95150,PLQ 3,1.316116927,103.8937218,"2 Tanjong Katong Rd, PLQ 3, Quarter 437161",SPMobility,6,TRUE,5,FALSE,2023-06-06 11:41:38.219974
4788dbd5-e6b0-4b86-b258-f333d308c6eb,Pan Pacific Serviced Suites Orchard,1.301047512,103.8377051,"96 Somerset Rd, Singapore 238163",SPMobility,4,TRUE,35,FALSE,2023-06-06 11:41:38.219974
ee97a3f3-338c-4a91-84d3-def343a99ae7,UIC Building,1.278090444,103.8496704,"5 Shenton Way, Singapore 068808",SPMobility,8,TRUE,12,FALSE,2023-06-06 11:41:38.219974
b16d91e1-f0d2-4ac7-9967-34ce0996a319,Citibank Changi (Private access only),1.333966888,103.966081,"3 Changi Business Park Cres, Level 1, Singapore 486026",SPMobility,4,TRUE,37,FALSE,2023-06-06 11:41:38.219974
be7ee18d-df3e-4d59-bbe0-7bf9ebb1fb6b,The Alpha,1.288651017,103.7796567,"10 Science Park Rd, Singapore 117684",SPMobility,4,TRUE,9,TRUE,2023-06-06 11:41:38.219974
19f12142-2968-4ebf-ab7e-45d453c0fff6,Connexion,1.314288263,103.8537759,"1 Farrer Park Station Rd, Singapore 217562",SPMobility,4,TRUE,9,FALSE,2023-06-06 11:41:38.219974
80d121c7-c9fc-4a48-b786-e5475b408426,Nordcom One,1.44587857,103.8141897,"3 Gambas Cres, Singapore 757041",SPMobility,6,TRUE,11,FALSE,2023-06-06 11:41:38.219974
28bcc130-9869-4860-afed-b5ca4ee91604,Rivervale Mall,1.392589411,103.9044433,"11 Rivervale Cres, Singapore 545082",SPMobility,6,TRUE,14,FALSE,2023-06-06 11:41:38.219974
22cf5942-ebcd-43b3-8371-e8e4cddb40a9,Hyflux Innovation Centre,1.317649431,103.863362,"80 Bendemeer Rd, Singapore 339949",SPMobility,4,TRUE,24,FALSE,2023-06-06 11:41:38.219974
07c6fb7f-e38b-46b8-9c77-d9e77a0d2425,3 Changi Business Park Vista,1.336982614,103.9671233,"3 Changi Business Park Vista, Singapore 486051",SPMobility,4,TRUE,28,FALSE,2023-06-06 11:41:38.219974
f67ddd01-c914-4ccf-85b4-3b5fbd2a033f,Aperia Mall,1.31072615,103.8642956,"12 Kallang Ave, Singapore 339511",SPMobility,4,TRUE,11,TRUE,2023-06-06 11:41:38.219974
faf3c996-941d-43a3-802d-da4b6179d044,Singapore Zoo,1.404595188,103.7930659,"80 Mandai Lake Rd, 729826",SPMobility,10,TRUE,13,FALSE,2023-06-06 11:41:38.219974
b15087a3-b8d9-495f-b37f-4da4ee7aa27a,Entrepreneur Business Centre,1.33760001,103.9027875,"18 Kaki Bukit Rd 3, Singapore 415978",SPMobility,4,TRUE,28,FALSE,2023-06-06 11:41:38.219974
14c295b4-1700-4b1e-9295-ef0708082494,Techplace I,1.360652341,103.8567675,"4008/ 4009/ 4010, 4012 Ang Mo Kio Ave 10, 569628",SPMobility,4,TRUE,11,FALSE,2023-06-06 11:41:38.219974
bd36adeb-0542-4cae-bd77-1b44a1fbebc4,Orchid Country Club,1.412000406,103.8443433,"1 Orchid Club Rd, Singapore 769162",SPMobility,4,TRUE,19,TRUE,2023-06-06 11:41:38.219974
39d04ec3-5c67-49eb-b268-2e7a5784a82a,United Square,1.319627714,103.8437625,"101 Thomson Rd, Singapore 307591",SPMobility,4,TRUE,13,FALSE,2023-06-06 11:41:38.219974
30a2661b-2044-4a2d-aa4b-f8ecd9bd80ea,Novena Square,1.320104299,103.8439797,"238 Thomson Rd, Singapore 307683",SPMobility,6,TRUE,13,FALSE,2023-06-06 11:41:38.219974
22a5f9a5-a16e-47f1-a31d-a2b464499945,Sembawang Country Club,1.417491348,103.8156104,"249 Sembawang Rd, Singapore 758352",SPMobility,4,TRUE,22,TRUE,2023-06-06 11:41:38.219974
56089bca-07bd-4787-849f-d2239e8869d2,"Resorts World Sentosa B2, East B1, West B1",1.255340599,103.8218054,"8 Sentosa Gateway, 098269",SPMobility,2,TRUE,42,FALSE,2023-06-06 11:41:38.219974
c2bd7ef4-70b2-448f-9432-c57336526a59,SGX Centre 2,1.278917617,103.8492547,"4 Shenton Way, Singapore 068807",SPMobility,4,TRUE,12,FALSE,2023-06-06 11:41:38.219974
34b86c22-7057-429b-9ab2-de880362ea5d,Resorts World Sentosa B2 (VIP),1.255335497,103.8216869,"8 Sentosa Gateway, 098269",SPMobility,2,TRUE,30,FALSE,2023-06-06 11:41:38.219974
21cf6168-d720-4a4f-af0c-6c4f5324345d,Tagore 23 Warehouse,1.385552073,103.8280876,"23 Tagore Ln, Singapore 787601",SPMobility,4,TRUE,19,FALSE,2023-06-06 11:41:38.219974
cdc58809-2928-4fc0-8c53-23de0a79acba,Park Royal Pickering,1.286001569,103.8460157,"3 Upper Pickering St, Singapore 058289",SPMobility,2,TRUE,20,TRUE,2023-06-06 11:41:38.219974
7d4ffff3-875e-49b0-afe7-49ac0c9f2793,Vivocity,1.264649902,103.8222178,"1 HarbourFront Walk, Singapore 098585",SPMobility,4,TRUE,8,FALSE,2023-06-06 11:41:38.219974
304a61a3-a1b5-42bf-b9f9-9bf493063402,Tan Chin Tuan Mansion (Private access only),1.30552085,103.8373841,"42 Cairnhill Rd, Singapore 229661",SPMobility,2,TRUE,43,TRUE,2023-06-06 11:41:38.219974
ffb2df9e-f5fb-4a47-bd38-8de0841ec9f0,Odeon Towers,1.296507751,103.8532188,"331 North Bridge Road Odeon Towers, Singapore 188720",SPMobility,4,TRUE,12,FALSE,2023-06-06 11:41:38.219974
83c60dd0-f53d-44a7-b573-7ca2b5ca2ff5,Techplace II,1.377471459,103.8651091,"5012 Ang Mo Kio Ave 5, Singapore 569876",SPMobility,4,TRUE,12,FALSE,2023-06-06 11:41:38.219974
763d18b6-c72e-40ff-8a49-9640ebef92bc,Temasek Club,1.347400605,103.7803819,"131 Rifle Range Rd, Singapore 588406",SPMobility,4,TRUE,12,FALSE,2023-06-06 11:41:38.219974
d0e1fdba-c693-4358-baed-c38961f3d914,Republic Plaza,1.283362096,103.8508778,"9 Raffles Pl, Singapore 048619",SPMobility,4,TRUE,14,FALSE,2023-06-06 11:41:38.219974
6dc40682-1b17-45dc-a1df-cf0c920d65d5,Great World,1.293845495,103.8318864,"1 Kim Seng Promenade, Singapore 237994",SPMobility,4,TRUE,11,FALSE,2023-06-06 11:41:38.219974
22872e6e-669e-47e3-b286-bed090e8b372,Meissa,1.276482001,103.7959618,"100D Pasir Panjang Rd, Singapore 118520",SPMobility,5,TRUE,6,FALSE,2023-06-06 11:41:38.219974
8815a6c9-0d71-49d3-9de7-62d49dd0e500,West Park BizCentral,1.313618571,103.6949758,"20 Pioneer Cres, Singapore 628555",SPMobility,4,TRUE,20,FALSE,2023-06-06 11:41:38.219974
5d9522e3-3a92-4556-9873-c50f3661424f,Liat Towers,1.305471376,103.8305261,"541 Orchard Rd, Singapore 238881",SPMobility,4,TRUE,11,FALSE,2023-06-06 11:41:38.219974
963726ea-a48c-4c48-a066-fe6f95cb7201,Alexandra Technopark Block A,1.277705489,103.8008662,"438A &, 438B Alexandra Rd, 119967",SPMobility,8,TRUE,28,FALSE,2023-06-06 11:41:38.219974
f4e5f6de-58b3-4d12-9bf2-a518a50c2e33,The Galen,1.286503026,103.7841567,"61 Science Park Road, Singapore 117525",SPMobility,10,TRUE,9,TRUE,2023-06-06 11:41:38.219974
e0c4ceba-9655-475d-b293-61458b4ed458,HSL Waterfront@Penjuru,1.306245038,103.7306316,"42D Penjuru Rd, Singapore 609162",SPMobility,4,TRUE,22,TRUE,2023-06-06 11:41:38.219974
c12e2923-e9a0-4f83-abd3-5e9904f43887,Ascent,1.291295492,103.7858566,"2 Science Park Dr, Singapore 118222",SPMobility,4,TRUE,6,TRUE,2023-06-06 11:41:38.219974
9eb6b08f-e04f-4ddd-8ba3-d78cce316332,The Kendall,1.286405157,103.7836166,"50 Science Park Rd, Singapore 117406",SPMobility,4,TRUE,11,TRUE,2023-06-06 11:41:38.219974
602740e1-e49a-41f3-ad49-ca66e6527d6d,ALICE@MEDIAPOLIS,1.294135304,103.7934574,"29 Media Cir., Singapore 138565",SPMobility,4,TRUE,16,FALSE,2023-06-06 11:41:38.219974
d96186bd-6168-4af0-bed7-2a90846f032b,ICON@IBP,1.327569774,103.7489982,"3A International Business Park Rd, Singapore 609935",SPMobility,4,TRUE,8,TRUE,2023-06-06 11:41:38.219974
b1b4b65b-73e6-422d-bad6-67734412700f,The Capricorn,1.290113761,103.778846,"1 Science Park Road Singapore Science Park 2, 117528",SPMobility,4,TRUE,13,TRUE,2023-06-06 11:41:38.219974
139bc700-cfe9-46c8-b6db-a2cdeaeed3b3,Solaris@One-North,1.298431564,103.7898664,"1 Fusionopolis Walk, Singapore 138628",SPMobility,2,TRUE,17,FALSE,2023-06-06 11:41:38.219974
12f4f02c-037e-432d-9695-d5939ddbfd80,Galaxis,1.300124494,103.7883317,"1 Fusionopolis Pl, Singapore 138522",SPMobility,4,TRUE,7,FALSE,2023-06-06 11:41:38.219974
a58bfa80-23d2-414d-8acf-2d16ab5504c6,Goldbell Tuas,1.320775055,103.6391838,"8 Tuas Ave 18, level 3, Singapore 638892",SPMobility,4,TRUE,13,TRUE,2023-06-06 11:41:38.219974
251ce3fa-6c5b-40b0-aec1-337c835a750f,Singapore Polytechnic,1.310054576,103.7775388,"500 Dover Rd, Singapore 139651",SPMobility,0,TRUE,21,FALSE,2023-06-06 11:41:38.219974
c6701eb5-254d-4a90-9ad3-c2c1845d046f,Infinite Studios,1.292845268,103.7948477,"23 Media Cir., #02-15, Singapore 138563",SPMobility,4,TRUE,16,TRUE,2023-06-06 11:41:38.219974
0cb317f7-9ead-474d-a791-255ed65d0fa6,Corporation Place,1.325652552,103.7199527,"2 Corporation Rd, Singapore 618494",SPMobility,4,TRUE,17,FALSE,2023-06-06 11:41:38.219974
a94b28c0-08d9-4d9c-baf8-21428c24b323,Nordic European Centre,1.327590092,103.7484019,"3 International Business Park Rd, Singapore 609927",SPMobility,6,TRUE,22,TRUE,2023-06-06 11:41:38.219974
69addca6-dae3-42fb-958d-a8b1ab47d6f1,31 International Business Park,1.328913992,103.7461027,"31 International Business Park Rd, Singapore 609921",SPMobility,8,TRUE,30,TRUE,2023-06-06 11:41:38.219974
abf851a9-6feb-49ea-beb3-dd8fe98b9e8f,5 Science Park Drive,1.292592647,103.7865184,"5 Science Park Dr, Singapore 118265",SPMobility,4,TRUE,20,TRUE,2023-06-06 11:41:38.219974
034c3b41-7c5a-4557-b104-bd40173be0b5,Bukit Panjang Plaza,1.380329194,103.7640837,"1 Jelebu Rd, Singapore 677743",SPMobility,4,TRUE,19,FALSE,2023-06-06 11:41:38.219974
ff90d0e0-3939-47ae-a764-cfd77e6f6e0a,Carros Centre,1.430885358,103.7525577,"60 Jln Lam Huat, Singapore 737869",SPMobility,6,TRUE,13,TRUE,2023-06-06 11:41:38.219974
a247d515-a1bb-4a6a-ae60-db9f6e5cb669,Singapore Polytechnic T11A ,1.310150862,103.7791595,500 Dover Road Singapore 139651,SPMobility,4,TRUE,27,FALSE,2023-06-06 11:41:38.219974
32aceb2d-7222-406c-95ef-e5ffb1c57ddd,Westgate,1.334378362,103.7427826,3 Gateway Drive Singapore 608532,SPMobility,4,TRUE,8,FALSE,2023-06-06 11:41:38.219974
ee3f972b-67ce-4b2c-9ed3-aca23671f131,Six Battery Road,1.285387754,103.8516617,6 Battery Road Singapore 049909,SPMobility,1,TRUE,16,FALSE,2023-06-06 11:41:38.219974
a6052be2-d9c3-477f-b5db-8b0e28929d57,21 Collyer Quay,1.285179257,103.8527527,21 Collyer Quay Singapore 049320,SPMobility,1,TRUE,15,FALSE,2023-06-06 11:41:38.219974
a439fb48-7920-4800-8de6-1b08ebbfb0cf,CapitaSky,1.277032375,103.8479614,79 Robinson Road Singapore 068897,SPMobility,4,TRUE,9,FALSE,2023-06-06 11:41:38.219974
9f19a2e5-957e-4905-aa54-4acb19afe460,Capital Tower,1.277702451,103.8475342,168 Robinson Road Singapore 068912,SPMobility,1,TRUE,13,FALSE,2023-06-06 11:41:38.219974
eed6c3c2-cc50-421d-b5b4-1dfb9d3630e5,CapitaGreen,1.282414675,103.8502808,138 Market Street Singapore 048946,SPMobility,2,TRUE,11,FALSE,2023-06-06 11:41:38.219974
82e6c876-baaf-4afa-a7ca-9ec74d6cdbe1,Copthorne King’s Hotel,1.288288474,103.8366165,403 Havelock Road Singapore 169632,SPMobility,3,TRUE,22,FALSE,2023-06-06 11:41:38.219974
2f9db9e9-ffdc-4ba2-ae40-9d90e5c003c9,Gardens by the Bay - Bayfront Plaza,1.27926445,103.8600388,18 Marina Gardens Drive Singapore 018953,SPMobility,2,TRUE,35,FALSE,2023-06-06 11:41:38.219974
b9862b4b-6992-420b-9c53-94e7c81224b4,Gardens by the Bay - Main Entrance Carpark,1.281168342,103.8657227,18 Marina Gardens Drive Singapore 018953,SPMobility,5,TRUE,42,FALSE,2023-06-06 11:41:38.219974
481e4a9f-86b3-41ed-a1d9-30bfbacf6dc4,Fortune Centre,1.30028224,103.8526993,190 Middle Road Singapore 188979,SPMobility,4,TRUE,14,FALSE,2023-06-06 11:41:38.219974
2973fcda-eb7c-49ec-8842-8f940bcbf6bd,M Hotel,1.273766994,103.8450394,81 Anson Road Singapore 079908,SPMobility,4,TRUE,7,FALSE,2023-06-06 11:41:38.219974
fa488995-0350-45c2-968d-cb86d9801f65,Orchard Building,1.301448822,103.8372498,1 Grange Road Singapore 239693,SPMobility,4,TRUE,16,FALSE,2023-06-06 11:41:38.219974
35b8ee99-a153-4af3-a330-ae315cc94590,Studio M Hotel,1.290815353,103.8391724,3 Nanson Road Singapore 238910,SPMobility,3,TRUE,14,FALSE,2023-06-06 11:41:38.219974
268a7dca-3fee-45ba-927b-5d5f9d9e2b74,Quayside Isle,1.247928262,103.8417282,31 Ocean Way Singapore 098375,SPMobility,4,TRUE,13,FALSE,2023-06-06 11:41:38.219974
2b4fd180-3534-4b56-8fd9-d5b42ae6d1ea,UOB Plaza 1,1.28538394,103.850563,80 Raffles Place Singapore 048624,SPMobility,3,TRUE,11,FALSE,2023-06-06 11:41:38.219974
76e212a0-3455-4871-9107-493ae0e677de,Novena Square,1.319931507,103.8443069,238 Thomson Road Singapore 307683,SPMobility,6,TRUE,13,FALSE,2023-06-06 11:41:38.219974
64dcf042-1cf8-4c0e-a666-8d54c07f9e72,Sentosa Cove,1.248776317,103.8405533,1 Cove Avenue Singapore 098537,SPMobility,5,TRUE,12,FALSE,2023-06-06 11:41:38.219974
b272c001-2646-44b7-853e-97ab89f10086,Waterfront Plaza,1.290516257,103.8350296,390A Havelock Road,SPMobility,4,TRUE,16,FALSE,2023-06-06 11:41:38.219974
6d9b7125-b5ce-4243-8ad6-a6556099c187,Orchard Hotel,1.307532191,103.828598,442 Orchard Road Singapore 238879,SPMobility,5,TRUE,13,FALSE,2023-06-06 11:41:38.219974
080583ef-0d8f-481a-848b-7e43745e810a,King’s Centre,1.289608717,103.8358917,390 Havelock Road Singapore 169662,SPMobility,4,TRUE,13,FALSE,2023-06-06 11:41:38.219974
00488817-fe6a-4b8e-889f-2eec4e38b144,Marina One,1.277346492,103.8536072,23 Marina Way Singapore 018979,SPMobility,5,TRUE,10,FALSE,2023-06-06 11:41:38.219974
e1564b79-dcbf-4d1e-a6ca-12ef5e3609cf,Palais Renaissance,1.306649208,103.8295059,390 Orchard Road Singapore 238871,SPMobility,3,TRUE,18,FALSE,2023-06-06 11:41:38.219974
d3cd3f11-972f-40c7-988c-fc81fcf4513c,Funan,1.29113543,103.8501511,107 North Bridge Road Singapore 179105,SPMobility,4,TRUE,5,FALSE,2023-06-06 11:41:38.219974
4aff828b-310f-405a-a698-deb10cda3eaa,The Atrium Orchard,1.299974322,103.8453522,60A Orchard Road Singapore 238890,SPMobility,4,TRUE,18,FALSE,2023-06-06 11:41:38.219974
c19715e9-d521-486d-9ec6-72572dc5c1ae,Raffles City Singapore,1.293506145,103.8528061,252 North Bridge Road Singapore 179103,SPMobility,4,TRUE,22,FALSE,2023-06-06 11:41:38.219974
40e83668-e710-416f-882f-e7fd4a54e887,Clarke Quay Central,1.289025187,103.846611,6 Eu Tong Sen Street Singapore 059817,SPMobility,4,TRUE,19,FALSE,2023-06-06 11:41:38.219974
c8059f44-da96-44e2-a90b-c0bb94923b2f,Compass One,1.391903996,103.8946304,1 Sengkang Square Singapore 545078,SPMobility,5,TRUE,11,FALSE,2023-06-06 11:41:38.219974
11fb552c-f357-4fe9-b000-37a208efb8dc,NSRCC Kranji,1.424132347,103.728302,50 Neo Tiew Lane 3,SPMobility,4,TRUE,12,FALSE,2023-06-06 11:41:38.219974
fef611b1-54c4-4c6f-8223-a39dc5d21e52,351 on Braddell,1.343484044,103.8454895,351 Braddell Road Singapore 579713,SPMobility,2,TRUE,15,FALSE,2023-06-06 11:41:38.219974
3aa7bf8f-a4e3-4325-a6ce-0a42a4029441,Singapore Island Country Club,1.358946204,103.818985,180 Island Club Road Singapore 578774,SPMobility,2,TRUE,29,FALSE,2023-06-06 11:41:38.219974
b1ba7848-43db-4606-85d4-7db8407e0e49,City Square Mall,1.311398149,103.8565903,180 Kitchener Road Singapore 208539,SPMobility,4,TRUE,16,FALSE,2023-06-06 11:41:38.219974
7ef44439-7631-4275-9264-887a058900cd,Edward Boustead Centre,1.33287859,103.8922501,82 Ubi Avenue 4 Singapore 408832,SPMobility,4,TRUE,22,FALSE,2023-06-06 11:41:38.219974
3f21fde7-22f8-4774-b020-c47b1ab9e0a4,Temasek Polytechnic Carpark E,1.347548366,103.9301224,21 Tampines Avenue 1 Singapore 529757,SPMobility,8,TRUE,29,FALSE,2023-06-06 11:41:38.219974
4827a102-92a6-46c3-aeeb-020db00b8866,NSRCC Changi,1.318152666,103.975296,10 Changi Coast Walk,SPMobility,10,TRUE,12,FALSE,2023-06-06 11:41:38.219974
1f7a75d2-70f4-456c-a536-d6938a4db891,Orchard Central Supercharger,1.3007,103.83978,"181 Orchard Rd, Singapore, Singapore, 238896",Plugshare,3,TRUE,250,TRUE,2023-06-06 11:41:38.219974
d2ccc445-4328-4e15-bb54-1dde5ae73968,"Nissan Showroom, Johor Jaya",1.529448,103.816505,"1, Jalan Johor Jaya, Taman Perindustrian Plentong, 81750‎ Masai, ‎Johor, Malaysia",Plugshare,1,FALSE,,FALSE,2023-06-06 11:41:38.219974
1459b62a-37aa-497f-b6a2-ff62f92e30de,Hard Rock Hotel Desaru Coast,1.540211,104.264246,"Jln Pantai 3, 81930 Bandar Penawar, Johor, Malaysia",Plugshare,1,TRUE,50,TRUE,2023-06-06 11:41:38.219974
abb53d9b-740b-496e-9faf-c16c5af8f18e,Jade Garden Seafood Corner,1.348106,104.224009,"Lot 4785, 1 Jalan Siakap, Kampung Sungai Rengit, 81620, Pengerang, Johor",Plugshare,1,FALSE,,FALSE,2023-06-06 11:41:38.219974
815d7812-0e1d-4dd6-a3f1-27b39da9f0f9,Causeway Point Supercharger,1.436111,103.786496,"1 Woodlands Square, Singapore 738099",Plugshare,3,TRUE,250,TRUE,2023-06-06 11:41:38.219974
3282fefe-684a-4e7e-9426-36755aff60b0,"seri negeri (government building, public carpark)",1.545174,103.55988,"seri negeri (government building, public carpark)",Plugshare,1,FALSE,,FALSE,2023-06-06 11:41:38.219974
094c5790-8588-43d4-afb3-c9e6df85d844,"Gentari @ XPark Sunway Iskandar (22 kW AC, 60 kW DC)",1.3953,103.62577,"Jalan Medini Selatan 2 Medini Zone F, Bandar Medini Iskandar, 79250 Nusajaya, Johor, Malaysia",Plugshare,1,FALSE,,TRUE,2023-06-06 11:41:38.219974
7f73b05a-9b1f-491b-8878-1e6d486d2d5d,Waterway Point Supercharger,1.406303,103.901878,"83 Punggol Central, Singapore, Singapore, 828761",Plugshare,3,TRUE,250,TRUE,2023-06-06 11:41:38.219974
9744399a-aea8-4e93-9dbc-2bfa14f9ae74,Century Square Supercharger,1.35235,103.943846,"2 Tampines Central 5, Singapore, Singapore, 529509",Plugshare,3,TRUE,250,TRUE,2023-06-06 11:41:38.219974
df0cdc5a-53c8-4cbf-a4c1-16235bbde6b7,Volvo Pekin Auto,1.516984,103.674438,"PTD 144228, Taman Sutera Utama, 81300 Skudai, Johor, Malaysia",Plugshare,2,FALSE,,TRUE,2023-06-06 11:41:38.219974
d4593b68-82ee-4b17-b52f-1700d04cfd68,Block 15 Woodlands Loop,1.449289,103.809175,"15 Woodlands Loop, Woodlands‎ 738322, Singapore",Plugshare,1,FALSE,,FALSE,2023-06-06 11:41:38.219974
d4ab3f21-e59d-4db4-8e4e-fa4ff2a05df8,Goldbell Tuas,1.321866,103.639587,"8 Tuas Avenue 18, Singapore 638892",Plugshare,2,TRUE,50,TRUE,2023-06-06 11:41:38.219974
a1e45ee1-ac71-4188-9b67-388ca30bf2ec,Four Points By Sheraton Desaru (22 kW AC),1.576196412,104.2056669,"Jalan Kempas 2, Taman Desaru Utama, Bandar Penawar, Malaysia, 81930",Plugshare,3,FALSE,,FALSE,2023-06-06 11:41:38.219974
a168ccf6-cef6-4d91-a10c-e23389f4691a,Katong V Supercharger,1.302678,103.903352,"30 East Coast Road, Singapore, Singapore, 428751",Plugshare,3,TRUE,250,TRUE,2023-06-06 11:41:38.219974
3a000616-1a87-4643-a27f-34ae57ed8c00,Carros Centre,1.43148,103.75279,"60 Jln Lam Huat, Singapore 737869",Plugshare,3,TRUE,43,TRUE,2023-06-06 11:41:38.219974
7d96998b-c1ba-4078-8b55-e79cb922eb2f,Setia Eco Garden Sales Gallery [22kWAC],1.491739236,103.5854111,"Persiaran Lam Setia Utama, Setia Eco Garden, Gelang Patah, Johor, Malaysia",Plugshare,1,FALSE,,FALSE,2023-06-06 11:41:38.219974
0ed3c071-2065-4253-8ebb-40790ce07c21,Shell Choa Chua Kang,1.385636,103.746452,"20 Choa Chu Kang Dr, Singapore 689717",Plugshare,1,TRUE,50,TRUE,2023-06-06 11:41:38.219974
a08e130b-de18-46bf-885e-4b9321dc8187,Eikoh Roller International (S) Pte Ltd,1.290889,103.624422,45 Tuas View Loop Singapore 637699,Plugshare,1,FALSE,,TRUE,2023-06-06 11:41:38.219974
fe40b9ab-2c8e-4523-a406-70098c4b5f5c,Petronas R&R Gelang Patah Southbound (22 kW AC),1.386627,103.593256,"LINKEDUA Malaysia - Singapura, 81550, Gelang Patah",Plugshare,1,FALSE,,FALSE,2023-06-06 11:41:38.219974
f6f03a46-ffe3-4e82-93e8-37ad2ebddb5d,Hyundai Skudai Kiri,1.48965,103.711027,"Kampung Skudai Kiri, 81200 Johor Bahru, Johor, Malaysia",Plugshare,2,FALSE,,FALSE,2023-06-06 11:41:38.219974
91adfb6a-d032-4c92-af48-90e00c2cb445,Renaissance Hotel JB,1.49444089,103.8114982,"No. 53-01 & 55, 01, Jalan Permas 10/1, Bandar Baru Permas Jaya, 81750 Masai, Johor, Malaysia",Plugshare,6,FALSE,,FALSE,2023-06-06 11:41:38.219974
279475f1-8658-4e19-b3a4-fba0036edafc,Zenith Lifestyle Mall (11 kW AC; 50 kW DC),1.4635729,103.7622119,"82C, Jalan Trus, Bandar Johor Bahru, 80000 Johor Bahru, Johor, Malaysia",Plugshare,3,FALSE,,TRUE,2023-06-06 11:41:38.219974
8e80e914-97fb-4195-ac98-b9e12db91b16,"EcoWorld Gallery (1 x 22 kW, 1 x 3.7 kW)",1.578823,103.722933,"81100‎ Tebrau‎ Johor, Malaysia",Plugshare,2,FALSE,,FALSE,2023-06-06 11:41:38.219974
0cc50015-c590-4a56-b527-45cb62ee9676,Singapore Zoo,1.404922,103.78798,"Mandai Lake Road 80, 729826 Singapore",Plugshare,8,TRUE,11,TRUE,2023-06-06 11:41:38.219974
2c74e899-9a62-42e9-89b7-1a01544f96cd,Bedok Point,1.324702,103.932418,799 Upper Changi Road ,Plugshare,2,FALSE,,FALSE,2023-06-06 11:41:38.219974
7d0b194f-e147-4bc7-96c3-485ce99d83e0,ACO HQ Johor Bahru (180kW),1.535961,103.75342,"14, Jalan Firma 3, Kawasan Perindustrian Tebrau 4, 81100 Johor Bahru, Johor, Malaysia",Plugshare,3,FALSE,,TRUE,2023-06-06 11:41:38.219974
32ea7d3b-b73f-421a-99c3-fe49757a98c3,NTU Research Techno Plaza,1.343423,103.679373,"50 Nanyang Ave, Singapore 639798",Plugshare,2,FALSE,,FALSE,2023-06-06 11:41:38.219974
b1d5fa13-283d-46e4-bc07-647d68992d2b,Petronas Pasir Gudang Highway 3 (1 x 22 kW),1.522925,103.731079,"81800‎ Kota Tinggi‎ Johore, Malaysia",Plugshare,1,FALSE,,FALSE,2023-06-06 11:41:38.219974
a44bc1cc-b543-4472-80c9-4c3cbf431643,Juice+: Changi Airport Terminal 2,1.352961,103.988037,9X3Q+56 Singapore,Plugshare,3,FALSE,,TRUE,2023-06-06 11:41:38.219974
2b578289-a78e-4255-bf5d-fdd91306c1c0,Tagore 23,1.386026,103.828227,"23 Tagore Ln, Singapore 787601",Plugshare,2,TRUE,50,TRUE,2023-06-06 11:41:38.219974
237c3d63-03ed-47a3-82f4-4629c0138b5b,Jen Johor Puteri Harbour (2 x 22 kW),1.417565,103.656614,"Persiaran Puteri Selatan, 79000 Perkampungan (Felcra) Tebing Runtuh, Johore, Malaysia",Plugshare,2,FALSE,,FALSE,2023-06-06 11:41:38.219974
f29736bd-6d05-4cdb-9215-3b04028cdb94,Harvest@Woodlands by EVone Charging,1.4514023,103.7914704,"280 Woodlands Industrial Park E5, Singapore 757322",Plugshare,1,FALSE,,TRUE,2023-06-06 11:41:38.219974
73c3222c-55a4-4720-bbab-06e3d22bb747,BMW Auto Bavaria Tebrau,1.54998,103.792759,"3B, Persiaran Desa Tebrau, Taman Desa Tebrau, 81100 Johor Bahru, Johor, Malaysia",Plugshare,2,TRUE,90,TRUE,2023-06-06 11:41:38.219974
4d5e912b-7bb6-4f95-add4-8b6a7281636e,Palkom Motors,1.530922,103.780719,"No. 1, Jalan Kota Tinggi, Batu 7 1/4, Taman Pandan, Johor, Kawasan Perindustrian Pandan, 81100 Johor Bahru, Johor, Malaysia",Plugshare,2,TRUE,40,TRUE,2023-06-06 11:41:38.219974
21faf2a3-0f00-4c75-ac5a-1a6bc8ac9ada,Shell Dunearn University,1.323543,103.817429,"288 Dunearn Rd, Singapore 299557",Plugshare,1,TRUE,43,TRUE,2023-06-06 11:41:38.219974
e70e6cb6-20e3-43d5-aa04-c3a7614de833,Petronas Kawasan Perindustrian Kota Puteri (22 kW AC),1.506207,103.842717,"Petronas, Kawasan Perindustrian Kota Puteri, 81750 Masai, Johor, Malaysia",Plugshare,1,FALSE,,FALSE,2023-06-06 11:41:38.219974
123c11ae-b35c-4a25-a42c-90632c316afe,home,1.493149,103.860469,Taman Bukit Rinting ,Plugshare,1,FALSE,,FALSE,2023-06-06 11:41:38.219974
4d5b7a3d-012a-4146-9a6d-c60eded255fb,West Coast Plaza Supercharger,1.303732,103.76663,"154 West Coast Road, Singapore, 127371",Plugshare,3,TRUE,250,TRUE,2023-06-06 11:41:38.219974
9ac1826b-27ef-4751-b7a0-8d3780aa9fdc,The Star Vista Supercharger,1.306932,103.788222,"1 Vista Exchange Green, Singapore 138617",Plugshare,3,TRUE,250,TRUE,2023-06-06 11:41:38.219974
940bfb5a-b884-426c-84ba-0401cdb80474,HSL Waterfront @ Penjuru,1.305972,103.730418,"42D Penjuru Road, Singapore 609162",Plugshare,4,FALSE,,FALSE,2023-06-06 11:41:38.219974
1527fc18-8114-44cd-8468-f9fb9b735ffc,Nordcom One,1.444324,103.814023,"5a Gambas Cres, Singapore",Plugshare,5,TRUE,22,TRUE,2023-06-06 11:41:38.219974
747bd8a5-a426-4265-87b7-7d84c4ef5692,SICC Island SP Charger,1.35895,103.819354,"180 Island Club Rd, Singapore 578774",Plugshare,2,FALSE,,TRUE,2023-06-06 11:41:38.219974
4e8572e3-565d-47b8-baef-29a51916d7ad,Millenia Walk Supercharger,1.292254,103.859707,"9 Raffles Blvd, Singapore 039596",Plugshare,3,TRUE,250,TRUE,2023-06-06 11:41:38.219974
c15106a4-123c-4053-989a-76738c882de1,Shell Boon Lay,1.343959,103.707764,"2 Boon Lay Ave, Singapore 649960",Plugshare,1,TRUE,50,TRUE,2023-06-06 11:41:38.219974
e66ccced-8868-46dc-aaab-40fa738f29af,"Sand & Sandals Resort, Desaru (MyEVOC 1x 22 kW)",1.560694,104.253109,"29, Jalan Desaru, Desaru, 82200 Bandar Penawar, Johor, Malaysia",Plugshare,1,FALSE,,FALSE,2023-06-06 11:41:38.219974
453aa96d-a6f4-4290-9f17-8ddada69cf84,Shell Yishun,1.430866,103.833008,"1 Yishun Street 11, Singapore 768642",Plugshare,1,TRUE,50,TRUE,2023-06-06 11:41:38.219974
c28a69f1-ff5c-498d-a9e0-dd1b89699008,Orchid Country Club,1.41139,103.84436,"Orchid Club Road 1, 769162 Singapore",Plugshare,1,TRUE,43,TRUE,2023-06-06 11:41:38.219974
68589940-d800-466b-9551-49ee9186817c,Shell 648 Dunearn Rd,1.3309944,103.7991123,648 Dunearn Road,Plugshare,2,FALSE,,TRUE,2023-06-06 11:41:38.219974
16a604aa-6b82-43ec-bc23-12910600d4f9,Juice+: Gain City Sungei Kadut,1.412927,103.7459779,"71 Sungei Kadut Dr, Level 2, Singapore 729577",Plugshare,2,FALSE,,TRUE,2023-06-06 11:41:38.219974
6fee9281-0d1a-47bc-bfea-9d5e7910f556,Biopolis,1.303518,103.792513,31 Biopolis Way Singapore 138668,Plugshare,1,FALSE,,FALSE,2023-06-06 11:41:38.219974
c69a7eb1-e81a-4a43-8768-594674617cbf,City Square Mall (2),1.311323494,103.8563217,"180 Kitchener Rd, Singapore 208539",Plugshare,2,TRUE,250,TRUE,2023-06-06 11:41:38.219974
0c1045d3-c011-4e5f-83b6-6de05c0e868d,Republic Plaza,1.283519,103.850595,"9 Raffles Place, Singapore 048619",Plugshare,2,TRUE,43,TRUE,2023-06-06 11:41:38.219974
4c4e81a8-d943-4ba8-97fe-266dbb7679c0,Business Aviation Complex,1.417807,103.863333,"700 West Camp Road, Singapore",Plugshare,1,FALSE,,FALSE,2023-06-06 11:41:38.219974
08b994fa-9bd8-489c-80fe-ad726c37cd3b,Bukit Panjang Plaza,1.379987,103.764397,"1 Jelebu Rd, Singapore 677743",Plugshare,2,TRUE,7.4,TRUE,2023-06-06 11:41:38.219974
25563dd2-edfb-4cf7-ac65-91172b750db1,CDG Engie - Singapore University Of Social Sciences (SUSS/SIM),1.329017,103.776129,"Singapore, Clementi Rd, #463号SG",Plugshare,4,FALSE,,TRUE,2023-06-06 11:41:38.219974
fa55ffee-90f8-4dca-81ab-0ef71d84e11a,Sembawang Country Club,1.418225,103.815461,"249 Sembawang Rd, Singapore 758352",Plugshare,2,TRUE,43,TRUE,2023-06-06 11:41:38.219974
bb69dd4f-fee3-43b2-a06f-4e0faa26b94e,KSL City Mall,1.485534,103.762308,"Jalan Beruang, 80250 Taman Tasek, Johore, Malaysia",Plugshare,5,FALSE,,FALSE,2023-06-06 11:41:38.219974
c2990647-cdb1-4344-bc06-12d82568cfa5,SP Group: CSC Changi,1.391529077,103.9852026,"2 Netheravon Rd, Singapore 508503",Plugshare,2,FALSE,,FALSE,2023-06-06 11:41:38.219974
a38e7425-58d8-42c0-b235-5cd74c1ca550,BlueSG open to EVs: BLK 476 Upp Serangoon View,1.377267,103.903628,"476 Upper Serangoon View, Singapore 530476",Plugshare,4,FALSE,,FALSE,2023-06-06 11:41:38.219974
7e7ea2b6-7813-4995-8c89-7881602651f8,Penjuru Close #01-11by EVone Charging,1.313091,103.731755,28F Penjuru Close #01-11,Plugshare,2,FALSE,,TRUE,2023-06-06 11:41:38.219974
0301c9ef-70c6-4607-93cd-9f2606e22913,Corporation Place,1.32602,103.719828,"2 Corporation Rd, Singapore 618494",Plugshare,2,TRUE,50,TRUE,2023-06-06 11:41:38.219974
ac69b0e4-4e5c-408a-bd4b-9af002542705,Shell Bukit Batok,1.350191,103.738495,"11 Bukit Batok West Ave 3, Singapore 659166",Plugshare,1,TRUE,50,TRUE,2023-06-06 11:41:38.219974
feb46844-36cb-4993-8965-6f4138fb846d,"BlueSG open to EVs: Blk 212, Serangoon Ave 4",1.356931,103.873222,"212 Serangoon Ave 4, Singapore 550212",Plugshare,4,FALSE,,FALSE,2023-06-06 11:41:38.219974
db280d07-5683-442a-b7f6-5591fb66ebd3,Johor Premium Outlets (3.7 kW AC),1.60292,103.622421,"Jalan Premium Outlets, 81400 Senai, Johore, Malaysia",Plugshare,4,FALSE,,FALSE,2023-06-06 11:41:38.219974
26a59ffb-8e6f-4861-a7a6-5eb72266398b,Marina Bay Cruise Center Singapore,1.266151,103.860488,"Marina Coastal Drive, Singapore",Plugshare,3,FALSE,,FALSE,2023-06-06 11:41:38.219974
fefb3821-3003-455e-99d5-bc786aecf55d,Thistle Hotel Multi Level Car Park (3 pin),1.462316,103.74322,"Jalan Sungai Chat, Sri Gelam, 80100 Johor Bahru, Johor, Malaysia",Plugshare,1,FALSE,,FALSE,2023-06-06 11:41:38.219974
4b68449c-e8f1-4060-b3ac-672518bba66d,"BlueSG open to EVs: Blk 678A, Choa Chu Kang Crescent",1.401979,103.745077,"678A Choa Chu Kang Cres, Singapore 681678",Plugshare,4,FALSE,,FALSE,2023-06-06 11:41:38.219974
41a57b83-5b34-4efc-b13b-6e4705f41654,Shell Bukit Batok,1.347825,103.764854,"28 Bukit Batok East Ave 6, Singapore 659760",Plugshare,1,TRUE,43,TRUE,2023-06-06 11:41:38.219974
e988fef7-671c-45be-b79c-f2a8a6aa0c16,Temasek Club,1.346985,103.780824,"131 Rifle Range Rd, #04-04, Singapore 588406",Plugshare,4,FALSE,,TRUE,2023-06-06 11:41:38.219974
65e64b24-383b-4ed3-a63a-ae704dd0fc84,Eco Spring,1.588156,103.757771,"2, Jalan Ekoflora Utama, 81100 Johor Bahru, Johor, Malaysia",Plugshare,2,FALSE,,FALSE,2023-06-06 11:41:38.219974
7f282d62-a8d5-4cea-9c96-97f579f13ee3,Starbucks Seri Austin DT,1.575883,103.747829,"Jalan Seri Austin 1, Taman Seri Austin, 81100 Johor Bahru, Johor",Plugshare,2,TRUE,22,FALSE,2023-06-06 11:41:38.219974
851813d9-08dd-41bd-9326-00bb01ec03c8,Starbucks Shell Seri Alam DT (22 kW AC),1.510795489,103.8776413,"Bandar Baru Seri Alam, 81750 Masai, Johor, Malaysia",Plugshare,1,FALSE,,FALSE,2023-06-06 11:41:38.219974
f5763f7c-ee42-4afd-81a6-05a3e1882425,MEDINI 7 CORPORATE OFFICE (1 x 3.7 kW),1.413718,103.628348,"Jalan Medini Sentral 5, Bandar Medini Iskandar Malaysia, 79250, Iskandar Puteri",Plugshare,1,FALSE,,FALSE,2023-06-06 11:41:38.219974
ea9f72d1-c732-4d4d-8fbd-546bebdfa0fb,WATT - The Rochelle,1.332928,103.790957,"188 Keng Lee Rd, Singapore 308414",Plugshare,2,FALSE,,FALSE,2023-06-06 11:41:38.219974
a20db688-707d-4940-aab8-94c7ee99b99e,Tanah Merah Country Club Garden Course,1.328246,103.979775,"25 Changi Coast Road, Singapore 499803",Plugshare,6,FALSE,,FALSE,2023-06-06 11:41:38.219974
6736e3f0-be78-435c-ad7e-5fcdf3794eaa,MYDIN Mutiara Rini (3 x 22 kW AC),1.51514742,103.6353126,"7, Persiaran Jaya 1, Mutiara Rini, 81300 Johor Bahru, Johor, Malaysia",Plugshare,3,FALSE,,FALSE,2023-06-06 11:41:38.219974
41d6fa53-2320-4720-95f9-e17f0dc95558,Petronas Toll Skudai Northbound,1.579332,103.650349,"81400 Tampoi, Johore, Malaysia",Plugshare,3,FALSE,,FALSE,2023-06-06 11:41:38.219974
10b90955-a80f-4739-aa00-42ea77d61744,Charge+: Ci Yuan Community Club Basement Carpark,1.375239,103.882883,51 Hougang Avenue 9 Singapore 538776,Plugshare,2,FALSE,,TRUE,2023-06-06 11:41:38.219974
4c6887e5-5b05-42af-9886-d8cc96faef9e,Singapore Polytechnic,1.309943,103.777368,"500 Dover Rd, Singapore 139651",Plugshare,2,TRUE,43,TRUE,2023-06-06 11:41:38.219974
8f691772-2f50-4eaa-9827-b223f9d5485d,West Park BizCentral,1.315185,103.695214,"32 Pioneer Cres, Singapore 628561",Plugshare,2,TRUE,50,TRUE,2023-06-06 11:41:38.219974
a7ee372a-d509-404e-8006-61cbe1f4ede4,MapleTree Pionner Logistics Hub,1.317787188,103.6533904,76 Pionner Road ,Plugshare,2,FALSE,,TRUE,2023-06-06 11:41:38.219974
b9af6f2c-d444-40c6-b0d9-01d91f3e17fa,SP Group: Techplace II,1.377181,103.866439,"5012 Ang Mo Kio Ave 5, Singapore 569872",Plugshare,2,FALSE,,TRUE,2023-06-06 11:41:38.219974
909e5542-4c70-44b5-8058-aba9d08b57f9,Tanah Merah Ferry Terminal,1.31412,103.9876,"50 Tanah Merah Ferry Rd, Singapore 498833",Plugshare,5,FALSE,,FALSE,2023-06-06 11:41:38.219974
eccd3221-2f97-459c-bc99-029c0a85f4d9,DC Fast Charger @JEGS (Coming Soon),1.303421,103.686712,"45 Shipyard Rd, 45, Singapore 628136",Plugshare,2,FALSE,,FALSE,2023-06-06 11:41:38.219974
e5ece00b-8274-44a3-8d61-344f82ee57fb,Sunway Citrine Hub (3 pin),1.390931,103.639452,"Persiaran Medini 3, Sunway City Iskandar Puteri, 79250 Iskandar Puteri, Johor, Malaysia",Plugshare,3,FALSE,,FALSE,2023-06-06 11:41:38.219974
ab96b402-d127-47da-9be0-436b675a6d1c,Shell Ang Mo Kio,1.367883,103.844826,"3535 Ang Mo Kio Ave 6, Singapore 569839",Plugshare,1,TRUE,50,TRUE,2023-06-06 11:41:38.219974
f2aac25c-cbdb-46d7-bacc-667d62724bfd,SP Group: Temasek Polytechnic Carpark E,1.347611,103.930455,"33 Tampines Ave 1, Singapore",Plugshare,4,FALSE,,TRUE,2023-06-06 11:41:38.219974
0a07c2a1-3eee-47a6-bcd0-0c46eacc9a59,Gardens by the Bay - Main Entrance Carpark,1.281584,103.866253,18 Marina Gardens Dr,Plugshare,4,FALSE,,TRUE,2023-06-06 11:41:38.219974
18cf0bfb-4873-476e-9385-fc962075026c,Woodlands Industrial Park,1.451869,103.796326,"158 Woodlands Industrial Park E5, Singapore 757867",Plugshare,1,FALSE,,FALSE,2023-06-06 11:41:38.219974
6a7e1054-c429-491d-9d79-105036f88c16,Shell Punggol,1.404761,103.906631,"821 Punggol Rd, Singapore 829169",Plugshare,1,TRUE,43,TRUE,2023-06-06 11:41:38.219974
6429d09b-6934-49f4-8a85-55ba12a74028,"BlueSG open to EVs: Blk 346, Bt Batok St 34",1.362406,103.750959,"347 Bukit Batok Street 34, Singapore 650347",Plugshare,4,FALSE,,FALSE,2023-06-06 11:41:38.219974
3f79ea47-7bd2-4b43-8d63-72d7c4085f3a,"BlueSG open to EVs: Blk 472, Fernvale Street",1.397119,103.881632,"472 Fernvale St, Singapore 792472",Plugshare,4,FALSE,,FALSE,2023-06-06 11:41:38.219974
305cbac9-e066-4990-b891-cd0863b5bb99,BlueSG open to EVs: 417 Pasir Ris Dr 6,1.372044,103.955051,"417 Pasir Ris Drive 6, Singapore 510417",Plugshare,4,FALSE,,FALSE,2023-06-06 11:41:38.219974
b0693894-5a9a-4e4e-8ba4-d0608887da21,Tada Station,1.359834,103.833595,"40 Sin Ming Lane, Midview City, Singapore 573958",Plugshare,1,FALSE,,TRUE,2023-06-06 11:41:38.219974
e68941c3-f1cc-47d9-92eb-bbd7f3807a7e,BlueSG Charger (4.8kW AC),1.31248,103.874478,"114A Lor 3 Geylang, Singapore 382114 Lor 3 Geylang, Singapore 382114",Plugshare,4,FALSE,,FALSE,2023-06-06 11:41:38.219974
842dda8e-3648-4729-8c67-8a66684e9860,Shell Telok Blangah,1.270457,103.812772,"450 Telok Blangah Road, Singapore 098857",Plugshare,1,FALSE,,TRUE,2023-06-06 11:41:38.219974
19c1107f-88c1-4860-94e3-61a72b81e92a,Shell Recharge Geylang Rd,1.311974723,103.8755682,203 Geylang Road ,Plugshare,1,FALSE,,TRUE,2023-06-06 11:41:38.219974
f4ab3b29-76f6-4311-9d36-20a21976179f,BlueSG open to EVs: 21 Jalan Masjid,1.320339,103.912298,"21 Jln Masjid, Singapore 418946",Plugshare,4,FALSE,,FALSE,2023-06-06 11:41:38.219974
8dda4f7a-6267-4ace-a5e7-a680951317eb,Starbucks Bandar Seri Alam DT (22 kW AC),1.496464,103.871663,"8, Jln Suria, Bandar Baru Seri Alam, 81750 Masai, Johor",Plugshare,1,TRUE,22,FALSE,2023-06-06 11:41:38.219974
d1723c1e-4e71-4bad-8b72-1f1f5ad1ef34,Aste Global -1 Tuas Link 1 by EVone Charging,1.333440869,103.6383892,"1 Tuas Link 1, Singapore 638583",Plugshare,1,FALSE,,TRUE,2023-06-06 11:41:38.219974
7ed10c54-1695-409e-b5c7-f92ae5e77a91,Shell Sengkang,1.391564,103.892738,"61 Sengkang E Rd, Singapore 545015",Plugshare,1,TRUE,50,TRUE,2023-06-06 11:41:38.219974
ffdf4e9c-b194-4c02-961f-fc4d80f41419,Shell Serangoon Gardens,1.363386,103.867302,"49 Serangoon Garden Way, Singapore 555944",Plugshare,1,FALSE,,TRUE,2023-06-06 11:41:38.219974
c7f436d7-fc82-4609-aa12-c348a8a27e82,Techplace I,1.360599,103.856128,"4008 Ang Mo Kio Ave 10, Singapore 569625",Plugshare,1,TRUE,43,TRUE,2023-06-06 11:41:38.219974
124f4193-2f4c-45e5-b78e-26bbf8cacf3b,Paradigm Mall JB,1.515891,103.685631,"Lot no. 4FK-12, 4th floor, Paradigm Mall, Taman Bukit Mewah, 81200 Johor Bahru, Johor, Malaysia",Plugshare,3,FALSE,,FALSE,2023-06-06 11:41:38.219974
c8f1ca29-0ea3-4f8b-a52b-ebf1d28f8759,Hougang Mall,1.3725894,103.8937225,90 Hougang Avenue 10,Plugshare,1,FALSE,,TRUE,2023-06-06 11:41:38.219974
355b0124-c82e-4102-953a-4b4b0192e225,"BlueSG open to EVs: Blk 129A, Bt Merah View",1.283617,103.823466,"129A Bukit Merah View, Singapore 151129",Plugshare,4,FALSE,,FALSE,2023-06-06 11:41:38.219974
f09b458c-33b9-4292-921f-7c920661fd62,Charge+: Woodlands Waterfront Carpark,1.451662,103.778802,FQ2H+MG Singapore,Plugshare,2,FALSE,,FALSE,2023-06-06 11:41:38.219974
26953c94-f7f7-4abe-84b5-ab92875937ae,Charge+: 29A Marsiling Drive,1.442634,103.772981,"29A Marsiling Dr, Singapore 731029",Plugshare,3,FALSE,,FALSE,2023-06-06 11:41:38.219974
4840dab4-ac6c-460e-8f6a-4db7ef2cf05a,Great World Supercharger,1.293346,103.832078,"1 Kim Seng Promenade, Singapore 237994",Plugshare,3,TRUE,250,TRUE,2023-06-06 11:41:38.219974
3de262ea-6f56-426d-93c4-778d4b048f62,"BlueSG open to EVs: Blk 512A, Serangoon North Ave 4",1.370763,103.875194,"512A Serangoon North Ave 4, Singapore 551512",Plugshare,4,FALSE,,FALSE,2023-06-06 11:41:38.219974
4a13bcba-2c1e-4fa2-9a1b-249244472c69,Shell Dunman,1.309945,103.901031,"No. 743 Dunman Rd, Singapore 439241",Plugshare,1,TRUE,43,TRUE,2023-06-06 11:41:38.219974
fdc30742-4c27-414b-a0c6-751919700dd4,Pioneer Centre,1.3326227,103.6969065,"1 Soon Lee St, Singapore 627605",Plugshare,1,TRUE,120,TRUE,2023-06-06 11:41:38.219974
4b0a751d-9253-4492-b5db-e2230cc7d81d,National Service Resort & Country Club,1.317675,103.974319,"10 Changi Coast Walk, Singapore 499739",Plugshare,10,FALSE,,FALSE,2023-06-06 11:41:38.219974
47470612-2be3-44cc-be93-347482a7753e,"BlueSG open to EVs: Blk 31A, Eunos Crescent",1.320107,103.901609,"31A Eunos Cres, Singapore 401031",Plugshare,4,FALSE,,FALSE,2023-06-06 11:41:38.219974
cafafe0a-d06a-4fcd-9c9b-13b922ddfc1d,"BlueSG open to EVs: BLK 241A, Bt Batok East Ave 5",1.350628,103.755377,"239 Bukit Batok East Ave 5, Block 239, Singapore 650239",Plugshare,4,FALSE,,FALSE,2023-06-06 11:41:38.219974
f07536b1-9ee9-42b5-a714-f6d8b9bb2f71,Juice+: Marina Country Club,1.415565,103.899791,11 Northshore Drive Singapore 828670,Plugshare,1,FALSE,,TRUE,2023-06-06 11:41:38.219974
659afeb7-af11-46fb-a54c-7c69dbf56c9a,CDG 455A Segar Rd,1.387690449,103.7713341,"455A Segar Rd, 新加坡 671455",Plugshare,1,FALSE,,FALSE,2023-06-06 11:41:38.219974
5224c8ff-7040-487b-8505-85b86a21ccb9,CDGE: 57A Teban Gardens Road,1.322502,103.737148,"57A Teban Gardens Rd, Singapore 601057",Plugshare,3,FALSE,,FALSE,2023-06-06 11:41:38.219974
aa5ed698-5950-4a4c-9a8e-a19db913ab47,BlueSG open to EVs: Blk 4 Queens Road,1.319338,103.808723,"4 Queen's Rd, Singapore 260004",Plugshare,4,FALSE,,FALSE,2023-06-06 11:41:38.219974
55faee29-fa54-48de-856f-7e853a7d196a,"BlueSG open to EVs: Blk 112, Bishan Street 12",1.346635,103.848961,"112 Bishan Street 12, Singapore 570112",Plugshare,4,FALSE,,FALSE,2023-06-06 11:41:38.219974
05c6ef5b-5c69-47d0-a055-2bc11a28cc6f,Charge+: Les Mains Patisserie,1.315606,103.925587,47 Jalan Tua Kong Singapore 457247,Plugshare,1,FALSE,,FALSE,2023-06-06 11:41:38.219974
a1289bcf-8b84-46c7-972e-a33f376a2c8f,Shell Newton Hooper,1.311417,103.843102,"150 Bukit Timah Rd, Singapore 229846",Plugshare,1,TRUE,50,TRUE,2023-06-06 11:41:38.219974
b3ca56b2-588e-46b5-adf6-f03c93ccaabe,Upper Bukit Timah Shell Recharge,1.338447451,103.77691,"35 Upper Bukit Timah Rd, Singapore 588166",Plugshare,2,FALSE,,TRUE,2023-06-06 11:41:38.219974
f4a3f141-6b4b-40eb-9417-29c84db986d9,Charge+ (in operation) (Coming Soon),1.437431,103.801205,"644A Woodlands Ring Rd, Singapore 731644",Plugshare,3,FALSE,,FALSE,2023-06-06 11:41:38.219974
c76c67a4-570e-4721-b307-f078b7a0ee16,Techlink,1.33594,103.905571,"31 Kaki Bukit Rd 3, Singapore 417818",Plugshare,2,TRUE,50,TRUE,2023-06-06 11:41:38.219974
70e058e4-d870-4f8f-916f-f8d0c745b61f,Sengkang Grand Mall,1.3818507,103.8927293,70 Compassvale Bow Singapore 544692,Plugshare,4,FALSE,,TRUE,2023-06-06 11:41:38.219974
c77d72c5-f381-4f3c-a639-b809738bcdea,Up@Robertson Quay,1.290676,103.837616,"75 Robertson Quay, Singapore 238238",Plugshare,2,FALSE,,FALSE,2023-06-06 11:41:38.219974
9f5314b4-e381-44ac-89f2-bdae01c816ef,SP Group: Rivervale Mall,1.392337,103.904346,"11 Rivervale Crescent, Singapore 545082",Plugshare,6,FALSE,,TRUE,2023-06-06 11:41:38.219974
2badac1d-3120-48d9-91b5-156895b4a3b9,"BlueSG open to EVs: Blk 334, Clementi Ave 2",1.314714,103.768249,"334 Clementi Ave 2, Singapore 120334",Plugshare,4,FALSE,,FALSE,2023-06-06 11:41:38.219974
f78e7dd1-71a1-45a8-99b1-ed3d8173182d,700A Pasir Ris Drive 10,1.380776334,103.9385398,511700,Plugshare,3,FALSE,,FALSE,2023-06-06 11:41:38.219974
6af7ce66-596c-458a-9847-c77447d50820,Caltex Jurong spring,1.349641,103.71487,"100 Jurong West Ave 1, Singapore 649519",Plugshare,1,FALSE,,TRUE,2023-06-06 11:41:38.219974
f7f15fb7-88ed-479d-800d-66fcc74cb3f9,LHN Energy Phoenix Park,1.29804,103.816568,"318 Tanglin Rd, Singapore 247979",Plugshare,1,FALSE,,FALSE,2023-06-06 11:41:38.219974
e1d6f6be-e0bf-4c4e-8e05-c6c1d1918594,National Heart Center,1.281513,103.836831,"17 Third Hospital Avenue, Singapore",Plugshare,1,FALSE,,FALSE,2023-06-06 11:41:38.219974
bb57dd58-3f8a-4686-936e-fbc159272af3,BlueSG open to EVs: Across 343 Telok Kurau Road,1.308638,103.912318,"21A St. Patrick's Road, Singapore 424143",Plugshare,4,FALSE,,FALSE,2023-06-06 11:41:38.219974
517fc5b0-02c1-455b-87d0-b6f196c7df81,"BlueSG open to EVs: Blk 230, Jurong East St 21",1.341795,103.737547,"230 Jurong East Street 21, Singapore 600231",Plugshare,4,FALSE,,FALSE,2023-06-06 11:41:38.219974
df2332aa-907a-4ba8-bfb5-5a00282eba5b,Resorts World Sentosa,1.257043,103.820353,"8 Sentosa Gateway, Singapore 098269",Plugshare,3,TRUE,50,TRUE,2023-06-06 11:41:38.219974
14fe10c2-f37a-4933-9ed4-a33b5e341b82,SP: Vivocity,1.264843,103.823285,"1 HarbourFront Walk, Singapore 098585",Plugshare,4,FALSE,,TRUE,2023-06-06 11:41:38.219974
96575b75-b9e0-4eab-8d61-01b87cc9ac9c,Connexion,1.312553,103.854282,"1 Farrer Park Station Rd, Singapore 217562",Plugshare,2,TRUE,43,TRUE,2023-06-06 11:41:38.219974
cf118c39-3ec8-4759-9d53-609af0e1bc23,GoParkin: Union Gas building,1.350622,103.89087,"89 Defu Lane 10, Singapore 539220",Plugshare,2,FALSE,,TRUE,2023-06-06 11:41:38.219974
e0d39df2-374a-4077-979b-c0a9ed4006ac,Charge+: Defu Industrial City,1.344882732,103.8967512,2 Defu South Street 1,Plugshare,3,FALSE,,TRUE,2023-06-06 11:41:38.219974
f83dead4-a3cb-4b9d-be54-0d6b27bbe10a,ESSO Pioneer,1.312940252,103.6873451,19 Pioneer Road S628499,Plugshare,2,FALSE,,TRUE,2023-06-06 11:41:38.219974
86567148-a491-4868-8554-1998e2681392,The Concourse,1.30136,103.862236,"300 Beach Rd, Singapore 199555",Plugshare,1,TRUE,3.7,FALSE,2023-06-06 11:41:38.219974
8e77adfb-831c-485a-bec9-93bfe9aa88cb,"BlueSG open to EVs: Blk 854A, Jurong West St 81",1.347799,103.696657,"854A Jurong West Street 81, Singapore 641854",Plugshare,4,FALSE,,FALSE,2023-06-06 11:41:38.219974
ba4e01b5-854e-4a0a-bc1f-bc8724fa39f8,BlueSG open to EVs: Blk 265 Yishun St 22,1.436903,103.838345,"266 Yishun Street 22, Singapore 760266",Plugshare,4,FALSE,,FALSE,2023-06-06 11:41:38.219974
61b41e47-e376-4ce0-9ccb-60ac92a76345,Singapore Polytechnic MSCP,1.311246,103.776681,"Dover Road, Commonwealth‎ 13, Singapore",Plugshare,1,FALSE,,FALSE,2023-06-06 11:41:38.219974
5dfb1451-3c52-418a-9acd-c79be0b232c2,Autobacs Ubi,1.33314,103.896672,"10 Ubi View, Singapore 408543",Plugshare,2,TRUE,43,TRUE,2023-06-06 11:41:38.219974
c2227848-63fd-4964-b6ea-ee5882e47499,KED ENERGY PTE LTD,1.336371265,103.7546585,"48 Toh Guan Rd E, Singapore 608586",Plugshare,3,FALSE,,TRUE,2023-06-06 11:41:38.219974
497b9447-c0e9-4e3e-abfb-a8aecc8acd81,CDG Engie: West Coast Park (McDonald’s),1.297562,103.763779,"71 W Coast Hwy, Singapore 126844",Plugshare,2,FALSE,,FALSE,2023-06-06 11:41:38.219974
0d3e4c85-dcf8-4046-9905-f8bafa9a9f1b,Shell,1.331795,103.888855,"255 Paya Lebar Rd, Singapore 409037",Plugshare,1,TRUE,50,TRUE,2023-06-06 11:41:38.219974
66a2aea3-9e86-4725-badb-3802f9fb0c42,CDGE: Esso Upper Aljunied,1.332267826,103.8790348,"373 Upper Aljunied Rd, Singapore 367859",Plugshare,1,FALSE,,TRUE,2023-06-06 11:41:38.219974
1135a308-4cb8-42ae-844e-26a4234ec5fe,"BlueSG open to EVs: Blk 903, Jurong West St 91",1.33961,103.686232,"903 Jurong West Street 91, Singapore 640903",Plugshare,4,FALSE,,FALSE,2023-06-06 11:41:38.219974
6d7e004a-8b96-415b-a99a-00403c25a629,"BlueSG open to EVs: Blk 117, Commonwealth Drive",1.306944,103.799533,"117 Commonwealth Cres, Singapore",Plugshare,4,FALSE,,FALSE,2023-06-06 11:41:38.219974
f5b3022e-50f5-47a2-97ed-54ba59684195,UE Square Tower (red zone),1.293274,103.84234,"205 River Valley Rd, Singapore 238274",Plugshare,2,FALSE,,TRUE,2023-06-06 11:41:38.219974
f3b55f6f-6d73-4ef6-a624-1f30d5fe18a5,"BlueSG open to EVs: Blk 966A, Hougang Ave 9",1.377945,103.877754,"966A Hougang Avenue 9, Singapore 531966",Plugshare,4,FALSE,,FALSE,2023-06-06 11:41:38.219974
bda5d5c2-6e01-46e8-9c33-02c7ef4d5e0e,"BlueSG open to EVs: Blk 326, Ubi Ave 1",1.32726,103.904208,"327 Ubi Ave 1, Block 327, Singapore 400327",Plugshare,4,FALSE,,FALSE,2023-06-06 11:41:38.219974
62f839c4-3879-49f8-91d4-4c7c8b435bd1,BlueSG open to EVs: BLK 853 Yishun Ring Road,1.416467,103.836745,"853 Yishun Ring Road, Singapore 760853",Plugshare,1,FALSE,,FALSE,2023-06-06 11:41:38.219974
ab1174e3-2d84-448f-8661-7d77b3e95724,BlueSG open to EVs: Blk 513 Yishun Street 51,1.415948,103.8442,"513c Yishun Street 51, Singapore 760513",Plugshare,4,FALSE,,FALSE,2023-06-06 11:41:38.219974
4ff6716d-a47f-4dea-967a-0c340268d2a1,LHN Energy Raeburn Park,1.273106,103.833155,"10 Raeburn Park, Singapore 088702",Plugshare,1,FALSE,,FALSE,2023-06-06 11:41:38.219974
db50bd6b-9331-480b-a3fc-e4c4a7986740,135A Pasir Ris Street 11,1.364802,103.956863,135A Pasir Ris Street 11,Plugshare,3,FALSE,,FALSE,2023-06-06 11:41:38.219974
8dc2b6aa-2146-4ac6-b0c1-a932e7e452ff,SP Group: Jewel Changi Airport,1.360699,103.989603,78 Airport Boulevard Singapore 819666,Plugshare,6,TRUE,22,FALSE,2023-06-06 11:41:38.219974
70b37273-572c-41dc-943e-8e5b5735b40c,Tanah Merah Country Club Tampines Course,1.32701961,103.9699416,151 Xilin Avenue,Plugshare,9,FALSE,,FALSE,2023-06-06 11:41:38.219974
0b294c87-320f-4c14-b8bb-5625500ef6b1,Mapletree,1.3192148,103.6882628,21 benoi sector,Plugshare,2,FALSE,,FALSE,2023-06-06 11:41:38.219974
ed05f331-768d-43ee-9be8-8df4788223ce,SPC Bukit Batok,1.343242791,103.7583437,"50 Bukit Batok East Ave 3, Singapore 659879",Plugshare,1,FALSE,,TRUE,2023-06-06 11:41:38.219974
86978b85-96d3-41a0-b534-b7ed3ec57fea,Expo Carpark D,1.333976255,103.9583871,1 Expo drive ,Plugshare,5,FALSE,,TRUE,2023-06-06 11:41:38.219974
951b5674-71f9-4bbf-941c-564932a3e0ec,CDG 787A Choa Chu Kang Dr,1.395113396,103.7476611,"787A Choa Chu Kang Dr, 新加坡 680787",Plugshare,1,FALSE,,FALSE,2023-06-06 11:41:38.219974
0ccd8f80-8f72-4f71-ab2e-93ab28c1d6aa,LHN Energy,1.372804,103.763206,794 Upper Bukit Timah Road,Plugshare,1,FALSE,,FALSE,2023-06-06 11:41:38.219974
f9a26473-300d-4f93-9453-d45dc3bcec26,CDGE: 117 Alkaff Crescent,1.336864883,103.8730202,"117 Alkaff Cres, Singapore 341115",Plugshare,3,FALSE,,FALSE,2023-06-06 11:41:38.219974
87e45a74-833a-4224-83e0-125e7ce63999,IKEA Tampines,1.373907,103.932551,"60 Tampines North Drive 2, Singapore 528764",Plugshare,4,TRUE,7.4,FALSE,2023-06-06 11:41:38.219974
d434a1e0-638c-40aa-aa83-98a91b467f86,BlueSG open to EVs: Blk 157 Ang Mo Kio Ave 4,1.375126,103.839276,"157 Ang Mo Kio Avenue 4, Singapore 56",Plugshare,4,FALSE,,FALSE,2023-06-06 11:41:38.219974
9501f212-92b3-4e73-adac-fb1bfab897be,Charge+: 220 Hougang Street 21,1.356983,103.884404,220 Hougang St 21,Plugshare,3,FALSE,,FALSE,2023-06-06 11:41:38.219974
022f8ac9-e5bf-4ab6-b9ae-b257a6ffa12a,BlueSG open to EVs: 52 Sims Place,1.316535,103.880084,"52 Sims Pl, Singapore 380052",Plugshare,4,FALSE,,FALSE,2023-06-06 11:41:38.219974
cf361aea-ac4d-463a-922b-afc31e2349d4,bluecharge@senja link 651,1.386895443,103.7643987,senja link 651 carpark,Plugshare,4,FALSE,,FALSE,2023-06-06 11:41:38.219974
58e0720a-78a4-4f1c-9ab4-80dfe2f2cb83,Jit Poh Building,1.272962,103.842388,"19 Keppel Road, Singapore",Plugshare,1,FALSE,,TRUE,2023-06-06 11:41:38.219974
cc94efac-d9c1-4c27-a3d7-fe63b3192f70,"BlueSG open to EVs: Blk 602, Clementi West St 1",1.305137,103.766255,"602 Clementi West Street 1, Singapore 120602",Plugshare,4,FALSE,,FALSE,2023-06-06 11:41:38.219974
96b2eabd-39e0-4967-8567-80f68b81b717,CDGEG: Blk 146A Lorong 2 Toa Payoh,1.334501,103.845655,"146A Lor 2 Toa Payoh, Singapore 311146",Plugshare,3,FALSE,,FALSE,2023-06-06 11:41:38.219974
061cc115-91c4-4daf-bdfe-f175188a42b6,"BlueSG open to EVs: Blk 117, Potong Pasir Ave 1",1.336562,103.863076,"114 Potong Pasir Ave 1, Singapore 350114",Plugshare,4,FALSE,,FALSE,2023-06-06 11:41:38.219974
b922b3ab-f8bc-476f-b8b3-0eaff7162dee,Molek Pine 4 (3.7 kW AC),1.525273,103.784371,"Jalan Molek 1/27, 81750‎ Pasir Gudang‎ Johor, Maleisië",Plugshare,4,FALSE,,FALSE,2023-06-06 11:41:38.219974
93bc43ca-26fb-4c0f-aeff-3152a6f13d30,Sheraton Towers,1.311664,103.83638,"39 Scotts Rd, Singapore 228230",Plugshare,4,FALSE,,TRUE,2023-06-06 11:41:38.219974
97f987b5-d586-44e7-aee7-1c2b94c3dc20,CDG EV Charger,1.35583,103.844308,290A Bishan St 24,Plugshare,3,FALSE,,FALSE,2023-06-06 11:41:38.219974
77e648f6-a638-475b-a362-d7a9cb336821,"BlueSG open to EVs: Bedok South Ave 3, behind blk 69",1.319527,103.942997,"behind blk 69, bedok south ave 3",Plugshare,4,FALSE,,FALSE,2023-06-06 11:41:38.219974
14b6a754-a683-4ee7-8033-ef65654800e9,D'Arena@Upper Jurong by EVone Charging,1.3294741,103.6822694,"511 Upper Jurong Rd, Singapore 638366",Plugshare,2,FALSE,,TRUE,2023-06-06 11:41:38.219974
1a608d80-5d94-4925-91ab-7327116281f6,BlueSG open to EVs: 37 Chai Chee Street,1.325191,103.925778,"36 Chai Chee Avenue, Singapore 461037",Plugshare,4,FALSE,,FALSE,2023-06-06 11:41:38.219974
360335cb-d221-477b-a82e-aefcb3ab098a,CDG Engie - 274A Toh Guan Road,1.341565,103.747455,"274A Toh Guan Rd, Singapore 600276",Plugshare,3,FALSE,,FALSE,2023-06-06 11:41:38.219974
4a0ab178-8d63-40f5-a25d-8f71af5a7fad,BlueSG open to EVs: 420 Tampines St 41,1.357784,103.947142,"419 Tampines Street 41, Singapore 529204",Plugshare,4,FALSE,,FALSE,2023-06-06 11:41:38.219974
0764fb4a-354e-4221-a64c-0fb21537b4e0,CDGE: Singapore Botanic Gardens Botany Centre,1.3084224,103.8182032,"1 Cluny Rd, Singapore 259569",Plugshare,2,FALSE,,FALSE,2023-06-06 11:41:38.219974
4ae97b63-92cf-45ba-bc3c-2185bee4e32a,Charge+: 633 Punggol Drive,1.400696,103.913915,"633 Punggol Dr, Singapore 820633",Plugshare,2,FALSE,,FALSE,2023-06-06 11:41:38.219974
54a2659d-062c-41af-a51c-e8d9cf04509c,"BlueSG open to EVs: Blk 688, Hougang St 61",1.375892,103.885486,"688 Hougang Street 61, Block 688, Singapore 530688",Plugshare,4,FALSE,,FALSE,2023-06-06 11:41:38.219974
2508ef03-6537-4c3d-9485-5f4c8e8984bd,Shell Recharge Tanglin Mall,1.305026,103.823851,"163, Tanglin Road, 247933",Plugshare,4,FALSE,,TRUE,2023-06-06 11:41:38.219974
d671df37-1473-48dd-85c9-248f1466718d,BlueSG open to EVs: Blk 769 Yishun Ave 3,1.424279,103.833275,"769 Yishun Avenue 3, Singapore 760769",Plugshare,4,FALSE,,FALSE,2023-06-06 11:41:38.219974
5d6e3c54-7ebb-4c4e-ae68-a2253811697d,Gardens By The Bay - Bayfront Plaza,1.279198,103.860073,"Unnamed Road, Singapore",Plugshare,1,FALSE,,FALSE,2023-06-06 11:41:38.219974
50a067e9-e9d7-467e-b508-a00499317bd3,ChargEco: Block 80 HDB Car Park,1.274012011,103.8073596,"80 Telok Blangah Street 31, Singapore 102080",Plugshare,3,FALSE,,FALSE,2023-06-06 11:41:38.219974
7dd7659d-52be-4b02-bfa7-7d0e18096961,NUS Stephen Riady Center,1.304036,103.77304,"2 College Ave West, Singapore",Plugshare,5,FALSE,,FALSE,2023-06-06 11:41:38.219974
8c9df2f9-0bb1-4953-83de-a72ff9366178,Willing Hearts,1.314248278,103.9070455,1 LorJ Telok Kurau,Plugshare,1,FALSE,,FALSE,2023-06-06 11:41:38.219974
353b29f4-891a-488e-9502-a5034e24a81d,Shell Tampines,1.349178,103.948016,"9 Tampines Ave 2, Singapore 529731",Plugshare,2,FALSE,,TRUE,2023-06-06 11:41:38.219974
6a6641b6-b805-4dec-8d3c-924347987117,Marina Bay Sands,1.285604,103.861107,"10 Bayfront Ave, Singapore 018956",Plugshare,8,TRUE,22,FALSE,2023-06-06 11:41:38.219974
21bc263b-58e3-4b1e-96f4-b7103c44b0e7,Bluecharge: Blk 32 Telok Blangah Rise,1.273182824,103.8210055,"Telok Blangah Rise, Mount Faber Grace Park, Singapore",Plugshare,4,FALSE,,FALSE,2023-06-06 11:41:38.219974
576a9f57-bda3-422a-af17-fb5a6d1a8480,Shell Braddell,1.3449,103.864464,"110 Braddell Rd, Singapore 359914",Plugshare,1,TRUE,50,TRUE,2023-06-06 11:41:38.219974
07c89eb8-4d5f-43d9-a3ec-e3a38f8adf14,"BlueSG open to EVs: Blk 809, Yishun Ring Road",1.416877,103.83055,"809 Yishun Ring Rd, Singapore 760809",Plugshare,4,FALSE,,FALSE,2023-06-06 11:41:38.219974
02fb72a4-a13c-461d-bb2b-2531be3983f0,SP Group: Marina Square,1.29179,103.857758,"Raffles Blvd, Singapore",Plugshare,3,TRUE,43,TRUE,2023-06-06 11:41:38.219974
218aad82-4c00-413a-b64b-4095f1987d8e,Tampines Plaza,1.353142,103.943078,"3 Tampines Central 1, Singapore 529540",Plugshare,4,TRUE,50,TRUE,2023-06-06 11:41:38.219974
7a2bc851-82b2-4e04-8e0c-8122b4b09042,"BlueSG open to EVs: Blk 103, Jalan Rajah",1.327412,103.852496,"103 Jln Rajah, Block 103, Singapore 321103",Plugshare,4,FALSE,,FALSE,2023-06-06 11:41:38.219974
73b141fa-af9b-4360-9f2a-2f4f56e65631,Lee Kong Chian School of Medicine,1.321851,103.848984,"11 Mandalay Rd, Singapore",Plugshare,1,TRUE,3.7,FALSE,2023-06-06 11:41:38.219974
d1cac7d1-2093-4fbc-8d93-79f7a05a9b8a,Charge+: 519A Woodlands Drive 14,1.434427612,103.7923171,"519A Woodlands Drive 14, Singapore 731519",Plugshare,3,FALSE,,FALSE,2023-06-06 11:41:38.219974
e564c232-8257-44fa-b908-fea7ba426508,Shell Recharge Pasir Ris,1.365821,103.966996,"1 New Loyang Link, Singapore 506931",Plugshare,1,TRUE,180,TRUE,2023-06-06 11:41:38.219974
e59acc63-1250-4f57-840a-6ecfd02a1776,Tiong Bahru Plaza,1.2862842,103.8277824,"355 Jln Bukit Ho Swee, Singapore 169567",Plugshare,2,FALSE,,TRUE,2023-06-06 11:41:38.219974
1ed63f9b-922a-4dc8-9774-b553ee0de8c9,Charge+: 226 Sumang Lane,1.4029418,103.8934653,"226 Sumang Lane, Singapore 820226",Plugshare,3,FALSE,,FALSE,2023-06-06 11:41:38.219974
8e9d7489-a6ef-401d-870c-c641afbaf493,"BlueSG open to EVs: Blk 537, Bt Batok St 52",1.354886,103.751171,"539 Bukit Batok Street 52, Block 539, Singapore 650539",Plugshare,4,FALSE,,FALSE,2023-06-06 11:41:38.219974
092520e9-0bcb-4435-ac67-996dd197161b,65A Kallang Bahru MSCP,1.3198411,103.8690631,65A Kallang Bahru S(331065),Plugshare,3,FALSE,,FALSE,2023-06-06 11:41:38.219974
aab057fb-71ea-4460-83c0-525654b20652,"Bluecharge: 50 Beach View, Basement",1.251294,103.818745,"50 Beach View, Singapore 098604",Plugshare,4,FALSE,,FALSE,2023-06-06 11:41:38.219974
5606d730-7236-4aab-b7bf-52b47468827d,"BlueSG open to EVs: Blk 329, Anchorvale St",1.396432,103.88939,"329 Anchorvale St, Singapore 540329",Plugshare,4,FALSE,,FALSE,2023-06-06 11:41:38.219974
59fc69f6-1306-47a1-a9a4-ed8c15494f98,CDGE: Autobay @ Kakit Bukit,1.3416647,103.9125865,1 Kakit Bukit Ave 6 ,Plugshare,1,FALSE,,TRUE,2023-06-06 11:41:38.219974
12173f54-7ca7-4980-9623-07d941e926dd,CDGE: 635A Jurong West Street Car Park,1.342288,103.69866,"635A Jurong West Street 65, Singapore 641635",Plugshare,3,FALSE,,FALSE,2023-06-06 11:41:38.219974
d0689456-ec52-431c-8cf0-a448cf4f376c,Storhub Toa Payoh,1.333221,103.852334,"615 Lrg. 5 Toa Payoh, Singapore 319457",Plugshare,2,TRUE,7.4,FALSE,2023-06-06 11:41:38.219974
24617652-619e-4553-9def-31ce33e1db4b,Capella Hotel Solacharge,1.2496291,103.8243003,"1 The Knolls, Sentosa Island, 098297",Plugshare,3,FALSE,,FALSE,2023-06-06 11:41:38.219974
d6463298-3cc0-48b2-b1ef-bf83ff2955b2,Shell Paya Lebar,1.322042,103.891624,"98 Paya Lebar Rd, Singapore 409008",Plugshare,1,TRUE,50,TRUE,2023-06-06 11:41:38.219974
a790fef8-5916-4c8c-b792-0b6659537dbd,"Bluecharge: 534, Bedok North St 3",1.334142,103.927754,"534 Bedok North Street 3, Singapore 460534",Plugshare,4,FALSE,,FALSE,2023-06-06 11:41:38.219974
4490827e-b843-4383-b7c0-965319e5c801,The Siemens Center,1.328057,103.870776,"62 MacPherson Rd, Singapore",Plugshare,1,TRUE,4.6,FALSE,2023-06-06 11:41:38.219974
d4ef766e-3894-44a7-8e06-3af3a6cfaac3,AA CENTRE,1.289876,103.812956,"2 Kung Chong Rd, Singapore 159140",Plugshare,2,TRUE,30,FALSE,2023-06-06 11:41:38.219974
e9b367b8-b9d3-4c0c-b4ce-5960211ada73,CDGE: Sin Ming Autocity,1.3592956,103.8392412,160 Sin Ming Drive,Plugshare,1,FALSE,,TRUE,2023-06-06 11:41:38.219974
a0ef9379-c2bc-4702-a0ac-cdc65729c53c,CDG Engie- Blk 451 Bukit Batok West Ave 6,1.353007,103.743458,Blk 451 Bukit Batok West Ave 6,Plugshare,3,FALSE,,FALSE,2023-06-06 11:41:38.219974
d65e1b9e-6c13-4282-b677-ae7abf3c3d17,"BlueSG open to EVs: Blk 609, Bedok Reservoir Road",1.33138,103.912313,"610 Bedok Reservoir Rd, Block 610, Singapore 470610",Plugshare,4,FALSE,,FALSE,2023-06-06 11:41:38.219974
9041d1a7-1c17-4384-bcf8-d4ece92207fa,BlueSG open to EVs: Blk 108 Simei St 1,1.343233,103.950837,"108 Simei Street 1, Singapore 520108",Plugshare,4,FALSE,,FALSE,2023-06-06 11:41:38.219974
df719c49-521f-4684-aeae-20d0ecea77fe,SP Group: Caltex Changi,1.316149,103.900084,"78 Changi Rd, Singapore 419714",Plugshare,1,FALSE,,TRUE,2023-06-06 11:41:38.219974
3118d62c-2dc3-4743-85b8-311342569874,Charge+: BLK 315 MSCP Y65M,1.432573,103.841762,"315 Yishun Ave 9, Block 315 Carpark, Singapore",Plugshare,4,FALSE,,FALSE,2023-06-06 11:41:38.219974
c8bb9e01-3163-4b53-8f2c-7d17eb922409,"Charge+: 431 Yishun Ave 1, Deck 5",1.420133,103.847638,"431c Yishun Ave 1, Singapore",Plugshare,3,FALSE,,FALSE,2023-06-06 11:41:38.219974
c5ca340a-51e6-4c85-a8d0-87bb8e477fd8,CDG: 183 Boon Lay MSCP,1.349273761,103.7094669,"183 Boon Lay Ave, Singapore 641183",Plugshare,3,FALSE,,FALSE,2023-06-06 11:41:38.219974
2458ff7f-a23a-4bb5-87be-cc532b5cf4c7,"CDG Engie - 311, Clementi Ave 4",1.319082,103.765158,"311 Clementi Ave 4, Singapore 120311",Plugshare,3,FALSE,,FALSE,2023-06-06 11:41:38.219974
8b6c6d6d-b0d6-4c15-a4ed-e198891d30a7,BlueSG open to EVs: Blk 590 Ang Mo Kio St 51,1.371474,103.853217,"590 Ang Mo Kio Street 51, Singapore",Plugshare,4,FALSE,,FALSE,2023-06-06 11:41:38.219974
71239495-b7a3-4d67-ae3d-e38fd9ad44e2,CDG Engie - 85 Dawson Road,1.29541,103.809262,85 Dawson Road,Plugshare,3,FALSE,,FALSE,2023-06-06 11:41:38.219974
64fec0ef-9f2c-4eca-8858-0fee1742750d,116 Jalan Tenteram MSCP,1.3277547,103.8611462,116 Jalan Tenteram,Plugshare,3,FALSE,,FALSE,2023-06-06 11:41:38.219974
24211309-83c1-4a4a-94a1-1229528be70c,"BlueSG open to EVs: Blk 203, Compassvale Road",1.387004,103.895935,"Blk 203, Singapore",Plugshare,4,FALSE,,FALSE,2023-06-06 11:41:38.219974
1c88f5a8-6af0-4ea3-af51-1fa8ea75ca79,Zhongshan Mall,1.327329,103.846394,"20 Ah Hood Rd, Singapore",Plugshare,2,TRUE,50,TRUE,2023-06-06 11:41:38.219974
f87b73af-76a4-4d10-a3fa-77a138872b5c,Shell,1.324259,103.842094,"324 Thomson Rd, Singapore 307672",Plugshare,1,FALSE,,TRUE,2023-06-06 11:41:38.219974
9c246ac8-589e-4809-b38c-7ec515c2c1b0,CDG Blk 289H Bukit Batok Street 25,1.344397053,103.7600309,"Blk 289H Bukit Batok Street 25, 新加坡 657289",Plugshare,1,FALSE,,FALSE,2023-06-06 11:41:38.219974
2456f3e4-e33e-4dd2-8d9a-fe28d9f7bd8c,BlueCharge: 425 Bedok North Road,1.329215,103.929551,425 Bedok Road Singapore 460425 ,Plugshare,4,FALSE,,FALSE,2023-06-06 11:41:38.219974
bf5b9838-3d4a-4d8b-8256-eb0368fb1204,CDG Engie - Blk 810 Choa Chu Kang Ave 7,1.373813,103.746674,"810 Choa Chu Kang Ave 7, Singapore 681810",Plugshare,3,FALSE,,FALSE,2023-06-06 11:41:38.219974
5e85ef70-18a7-4791-ae01-d90a1f41f327,870B Tampines St 86 (MSCP),1.356331,103.931039,"870B Tampines Street 86, Singapore 522870",Plugshare,3,FALSE,,FALSE,2023-06-06 11:41:38.219974
505d18cb-5515-4b91-afe4-b86a5deea778,Charge+: Blk 440 (MSCP) Fernvale Link,1.392986,103.878422,"440 Fernvale Link, Singapore 790440",Plugshare,3,FALSE,,FALSE,2023-06-06 11:41:38.219974
ca17d7c7-e408-4586-95be-08dc3d0e0658,Jurong Point,1.339342,103.705387,"1 Jurong West Central 2, Jurong Point, Singapore 648886",Plugshare,2,FALSE,,FALSE,2023-06-06 11:41:38.219974
38a5e9de-c469-4069-9d69-d0e027a7855b,"20 Ayer Rajah Crescent, Technopreneur Centre",1.295231,103.789842,"20 Ayer Rajah Crescent, Singapore",Plugshare,1,FALSE,,FALSE,2023-06-06 11:41:38.219974
b9171196-e18c-4c82-871a-4a4b5148a9bd,The Capricorn Underground Car Park,1.289639,103.778957,"1 Science Park Rd, Singapore 117528",Plugshare,1,TRUE,50,TRUE,2023-06-06 11:41:38.219974
dc71122c-52b3-46e4-9789-ac38a0547ab5,Storhub Jurong East by EVone Charging,1.3392365,103.7493724,3C Toh Guan Road East,Plugshare,1,FALSE,,TRUE,2023-06-06 11:41:38.219974
c2b6cd4f-65e9-4001-bb5b-a870c2b0fcbd,PE Drive Charging Station,1.331391,103.89573,"52 Ubi Avenue 3, Singapore 408867",Plugshare,1,FALSE,,FALSE,2023-06-06 11:41:38.219974
b1ed44ea-79d4-4778-bb69-f1ec5464079a,"BlueSG open to EVs: Blk 269, Tampines St 21",1.350668,103.947558,"269 Tampines Street 21, Singapore 520269",Plugshare,4,FALSE,,FALSE,2023-06-06 11:41:38.219974
8069d5be-ffd1-45d1-af79-1cfbf66a5609,One@Redhill Centre,1.284876,103.808552,"1 Jln Kilang Barat, Singapore 159345",Plugshare,2,FALSE,,TRUE,2023-06-06 11:41:38.219974
3a60c017-2804-41cb-8bd9-a040acd8eff0,Millenia Walk,1.291826,103.860199,9 Raffles Boulevard ,Plugshare,1,FALSE,,FALSE,2023-06-06 11:41:38.219974
8dfe2dd0-b79b-4020-a156-257e366c843c,CDG Teck Whye Ln Blk 118A Carpark,1.379520436,103.7499343,"118A Teck Whye Ln, Singapore 681118",Plugshare,1,FALSE,,FALSE,2023-06-06 11:41:38.219974
5ceced59-abaf-4881-8d83-accf4ba92c59,Kim Chuan-Tai Seng by EVone Charging,1.33778,103.891319,"1005 Tai Seng Ave, #01-2576",Plugshare,1,FALSE,,TRUE,2023-06-06 11:41:38.219974
9fcd9cfa-35b6-4513-becc-e8601054f891,"BlueSG open to EVs: Blk 165, Yishun Ring Road",1.435556,103.831963,"165 Yishun Ring Rd, Singapore 760165",Plugshare,4,FALSE,,FALSE,2023-06-06 11:41:38.219974
69e25c66-30ba-425b-a9d3-cd6a02dc28d9,Pan Pacific Serviced Suites Beach Road,1.299576,103.860151,7500B Beach Road,Plugshare,6,FALSE,,TRUE,2023-06-06 11:41:38.219974
1f835376-2771-4e69-a0b9-74802e7d0cef,MILLENIA PRIVATE LIMITED,1.291937,103.859741,"#B1-01 MILLENIA TOWERSINGAPORE, Singapore, 039192",Shell,4,TRUE,24,TRUE,2023-06-06 11:41:38.219974
d12b7a83-8bb4-4747-b26a-089bafd1ff9f,SHELL TELOK BLANGAH 621_01,1.270383,103.812867,"450 TELOK BLANGAH ROADSINGAPORE, Singapore, 098857",Shell,4,TRUE,26,TRUE,2023-06-06 11:41:38.219974
51087d16-a355-4a30-bbf6-5fca793f49f0,SUNTEC CITY (6 ZONES),1.29448,103.858305,"3 TEMASEK BOULEVARDSINGAPORE, Singapore, 038983",Shell,4,TRUE,21,TRUE,2023-06-06 11:41:38.219974
06453b4f-a15c-4a1f-a74c-ecb556626884,SHELL 305 OUTRAM 661_01.,1.28774,103.835,"305 OUTRAM ROADSINGAPORE, Singapore, 169072",Shell,4,TRUE,24,TRUE,2023-06-06 11:41:38.219974
f758766b-3e6d-4a83-887f-62bb8c2e466b,SHELL HAVELOCK 669_01.,1.290006,103.832466,"548 HAVELOCK ROADSINGAPORE, Singapore, 169637",Shell,4,TRUE,22,TRUE,2023-06-06 11:41:38.219974
d85aa4d7-02c4-467d-917f-5e46f018b634,SHELL EAST COAST 631_01,1.308193,103.909796,"338 EAST COAST ROADSINGAPORE, Singapore, 428961",Shell,4,TRUE,23,TRUE,2023-06-06 11:41:38.219974
37e03a51-12a8-46a5-bbec-2a7ac3539dc9,SHELL DUNMAN 639_01,1.309721,103.900959,"743 DUNMAN ROADSINGAPORE, Singapore, 439241",Shell,4,TRUE,19,TRUE,2023-06-06 11:41:38.219974
8f5e1507-f55b-4d5f-bbb3-b9fccdfd845a,SHELL TANJONG KATONG 650_01,1.310955,103.894427,"191 TANJONG KATONG ROADSINGAPORE, Singapore, 436993",Shell,4,TRUE,27,TRUE,2023-06-06 11:41:38.219974
e25699e3-21f7-44bc-b04c-b5ce4fc5cbe3,SHELL GUILLEMARD 662_01,1.310577,103.883834,"132 GUILLEMARD ROADSINGAPORE, Singapore, 399720",Shell,4,TRUE,23,TRUE,2023-06-06 11:41:38.219974
fe467453-adc2-4ebc-9286-d22d74758853,SHELL TIONG BAHRU 629_01,1.288301,103.819613,"603 TIONG BAHRU ROADSINGAPORE, Singapore, 158788",Shell,4,TRUE,24,TRUE,2023-06-06 11:41:38.219974
123e92de-d9c1-4c9f-af40-477ba24007c7,SHELL SIGLAP 602_01,1.312499,103.926555,"40 UPPER EAST COAST ROADSINGAPORE, Singapore, 455212",Shell,4,TRUE,19,TRUE,2023-06-06 11:41:38.219974
375c5df6-6ec6-4a24-a9e6-01818ad172ec,SHELL GEYLANG LOR 7 668_01,1.311984,103.875625,"203 GEYLANG ROADSINGAPORE, Singapore, 389266",Shell,4,TRUE,26,TRUE,2023-06-06 11:41:38.219974
e94db0da-11cf-4636-8575-f9baa8153157,SHELL CHANGI KEMBANGAN 601_01,1.318787,103.912929,"460 CHANGI ROADSINGAPORE, Singapore, 419883",Shell,4,TRUE,29,TRUE,2023-06-06 11:41:38.219974
957f896a-6b46-4357-9590-53198bfe8f4c,KOMOCO MOTORS - EV,1.291688,103.810306,"253 ALEXANDRA ROAD #01-01SINGAPORE, Singapore, 159936",Shell,4,TRUE,18,TRUE,2023-06-06 11:41:38.219974
66853660-63fa-4bfb-bc4b-3f057e97de26,SHELL ALEXANDRA 651_01,1.290666,103.806853,"358 ALEXANDRA ROADSINGAPORE, Singapore, 159950",Shell,4,TRUE,22,TRUE,2023-06-06 11:41:38.219974
925fdda5-161b-4483-9ccb-b65b787aee2a,SHELL SERANGOON RD 645_01,1.314435,103.857134,"509 SERANGOON ROADSINGAPORE, Singapore, 218152",Shell,4,TRUE,25,TRUE,2023-06-06 11:41:38.219974
31962efa-e083-419e-aec7-949c8d5091ca,SHELL 168 PASIR PANJANG 635_01,1.277511,103.789709,"168 PASIR PANJANG ROADSINGAPORE, Singapore, 118556",Shell,4,TRUE,30,TRUE,2023-06-06 11:41:38.219974
60d25c0c-6df4-4479-bfca-cd9544bad9fd,SHELL Q'WAY ANCHORAGE 640_01,1.289379,103.802905,"260 QUEENSWAYSINGAPORE, Singapore, 149060",Shell,4,TRUE,28,TRUE,2023-06-06 11:41:38.219974
0478d963-1b51-43ee-a510-f75304982bfc,SHELL PAYA LEBAR PIE 627_01,1.321708,103.891643,"98 PAYA LEBAR ROADSINGAPORE, Singapore, 409008",Shell,4,TRUE,27,TRUE,2023-06-06 11:41:38.219974
d7d11bc0-8971-4b37-9f38-cb963396446d,SHELL NEWTON HOOPER RD 643_01,1.311378,103.843095,"150 BUKIT TIMAH ROADSINGAPORE, Singapore, 229846",Shell,4,TRUE,29,TRUE,2023-06-06 11:41:38.219974
d5796ac3-abb4-46b1-bca1-80911b17edbc,SHELL NEWTON CIRCUS 655_01,1.311142,103.842285,"143 BUKIT TIMAH RDSINGAPORE, Singapore, 229843",Shell,4,TRUE,26,TRUE,2023-06-06 11:41:38.219974
10c2a606-c2b9-47f8-bdca-82d1174fde70,CUSCADEN TANGLIN MALL,1.304805,103.823901,"163 TANGLIN ROAD B2-01 TANGLIN MALLSINGAPORE, Singapore, 247933",Shell,4,TRUE,21,TRUE,2023-06-06 11:41:38.219974
06d2c93a-5000-4099-9f58-3749cfe4284f,SHELL MOULMEIN 632_01,1.318876,103.849692,"103 MOULMEIN ROADSINGAPORE, Singapore, 308080",Shell,4,TRUE,21,TRUE,2023-06-06 11:41:38.219974
02dbee33-3895-4880-8404-6f0294aae76b,SHELL CWEALTH/STIRLING 612_01,1.297515,103.803366,"355 COMMONWEALTH AVENUESINGAPORE, Singapore, 149731",Shell,4,TRUE,29,TRUE,2023-06-06 11:41:38.219974
67393641-8bb5-4443-94db-dce7cd8e5e6b,SHELL P.LEBAR M'PHERSON 638_01,1.331822,103.888725,"255 PAYA LEBAR ROADSINGAPORE, Singapore, 409037",Shell,4,TRUE,30,TRUE,2023-06-06 11:41:38.219974
6bba896f-dd1d-4261-b10c-c451ba4af087,SHELL MACPHERSON 617_01,1.331146,103.877749,"259 MACPHERSON ROADSINGAPORE, Singapore, 348584",Shell,4,TRUE,23,TRUE,2023-06-06 11:41:38.219974
c46317d6-942e-4ec0-acd6-a593c1bb6f3c,SHELL THOMSON NOVENA 665_01,1.324175,103.842151,"324 THOMSON ROADSINGAPORE, Singapore, 307672",Shell,4,TRUE,27,TRUE,2023-06-06 11:41:38.219974
294d733b-5276-4e43-92ff-76c0a0fa9ae6,SHELL SIMPANG BEDOK 623_01,1.330835,103.947557,"331 BEDOK ROADSINGAPORE, Singapore, 469504",Shell,4,TRUE,26,TRUE,2023-06-06 11:41:38.219974
4732e3fe-6830-494b-9990-7f55266e5167,SHELL 328 PASIR PANJANG 646_01,1.289315,103.777853,"328 PASIR PANJANG ROADSINGAPORE, Singapore, 118654",Shell,4,TRUE,30,TRUE,2023-06-06 11:41:38.219974
a58381c4-0d71-4b62-aa83-3b088fdbe34e,SINGAPORE EXPO,1.3341,103.959,"02-01 SINGAPORE EXPOSINGAPORE, Singapore, 486150",Shell,4,TRUE,14,TRUE,2023-06-06 11:41:38.219974
8747cb78-d34d-445a-a601-20e30d2d44bd,SHELL EASTERN PETROLEUM (PTE) LTD,1.305927,103.791651,"9 NORTH BOUNA VISTA DRI, BASEMENT 1SINGAPORE, Singapore, 138588",Shell,4,TRUE,33,TRUE,2023-06-06 11:41:38.219974
3f9d1792-6cc4-4f75-b197-680038e38495,SHELL DUNEARN UNI 658_01,1.323306,103.817319,"314 DUNEARN ROADSINGAPORE, Singapore, 299551",Shell,4,TRUE,24,TRUE,2023-06-06 11:41:38.219974
707b91a4-1b38-4d3e-a391-360b5db8cd91,SHELL BRADDELL 642_01,1.344578,103.864639,"110 BRADDELL ROADSINGAPORE, Singapore, 359914",Shell,4,TRUE,21,TRUE,2023-06-06 11:41:38.219974
926623c2-6a75-4fd2-b3a9-fe921e9eb376,SHELL TOA PAYOH 663_01,1.341095,103.848894,"248 LORONG 1 TOA PAYOHSINGAPORE, Singapore, 319755",Shell,4,TRUE,22,TRUE,2023-06-06 11:41:38.219974
e3138497-1672-40f1-ad24-c657a76b3bdc,SHELL HOUGANG 675_01.,1.349386,103.889993,"600 HOUGANG AVE 3SINGAPORE, Singapore, 538846",Shell,4,TRUE,21,TRUE,2023-06-06 11:41:38.219974
d9eb9dc3-e564-4e05-a8bb-7c96eee080e6,SHELL TAMPINES AVE 2,1.349153,103.947705,"9 TAMPINES AVENUE 2SINGAPORE, Singapore, 529731",Shell,4,TRUE,20,TRUE,2023-06-06 11:41:38.219974
fb6a46ce-4f05-4fdd-a455-6cb13b151dbb,SHELL LAKEVIEW 657_01,1.347975,103.838557,"80 UPPER THOMSON ROADSINGAPORE, Singapore, 574326",Shell,4,TRUE,21,TRUE,2023-06-06 11:41:38.219974
0aab2598-f0aa-40ea-94ef-197675d3fe06,SHELL DUNEARN ENG NEO 666_01,1.331007,103.798941,"648 DUNEARN ROADSINGAPORE, Singapore, 289629",Shell,4,TRUE,28,TRUE,2023-06-06 11:41:38.219974
e8a6a025-7e6d-428a-b01b-97c8ebe0c2fc,SHELL SIN MING 625_01,1.351306,103.835411,"183A UPPER THOMSON ROADSINGAPORE, Singapore, 574332",Shell,4,TRUE,21,TRUE,2023-06-06 11:41:38.219974
542cbdc4-f798-45d7-a56d-a5309d2ac169,SHELL YIO CHU KANG 633_01,1.360672,103.873902,"158 YIO CHU KANG ROADSINGAPORE, Singapore, 545612",Shell,4,TRUE,25,TRUE,2023-06-06 11:41:38.219974
16c938f8-851f-45ff-baab-9f6218018f2b,SHELL SGN GDN 606_01,1.363303,103.867444,"49 SERANGOON GARDEN WAYSINGAPORE, Singapore, 555944",Shell,4,TRUE,20,TRUE,2023-06-06 11:41:38.219974
fb13f9ba-2e3c-4ff1-98de-489b68f26ced,EV LUMENS AUTO PTE LTD,1.359432,103.839865,"300 Sin Ming RoadSINGAPORE, Singapore, 575626",Shell,4,TRUE,22,TRUE,2023-06-06 11:41:38.219974
a62c000a-4508-463b-bd24-2f795add4bc3,SHELL PASIR RIS 607_01,1.365855,103.967185,"1 NEW LOYANG LINKSINGAPORE, Singapore, 506931",Shell,4,TRUE,22,TRUE,2023-06-06 11:41:38.219974
8ac4b2b8-eb24-4528-9237-4d6adb89d3e6,SHELL ANG MO KIO AVE 6 670_01,1.367955,103.844734,"3535 ANG MO KIO, AVENUE 6SINGAPORE, Singapore, 569839",Shell,4,TRUE,29,TRUE,2023-06-06 11:41:38.219974
95081c99-b1fb-45ae-a46f-929396b8a2cd,SHELL UPP BT TIMAH PIE 659_01,1.338636,103.776808,"35 UPPER BUKIT TIMAH ROADSINGAPORE, Singapore, 588166",Shell,4,TRUE,29,TRUE,2023-06-06 11:41:38.219974
10d72027-9310-4d3e-92ab-ce2cb37dc926,SHELL PIERCE RESERVOIR 636_01,1.369931,103.828086,"551 UPPER THOMSON ROADSINGAPORE, Singapore, 574415",Shell,4,TRUE,29,TRUE,2023-06-06 11:41:38.219974
5bca70c5-663f-4235-b7b4-c4c87dc5a7c7,SHELL SELETAR HILLS 613_01,1.383614,103.877004,"298 YIO CHU KANG ROADSINGAPORE, Singapore, 805908",Shell,4,TRUE,26,TRUE,2023-06-06 11:41:38.219974
0c962413-57b2-4786-a0a6-a09b48cc142a,SHELL BT TIMAH HILL 667_01,1.345916,103.772113,"219 UPPER BUKIT TIMAH ROADSINGAPORE, Singapore, 588186",Shell,4,TRUE,26,TRUE,2023-06-06 11:41:38.219974
c0d43ff3-8faa-400c-891a-66c81a460b62,EV SINGAPORE AERO ENGINE,1.373256,103.982242,"11 CALSHOT ROADSINGAPORE, Singapore, 509932",Shell,4,TRUE,24,TRUE,2023-06-06 11:41:38.219974
f72e93f7-ac7d-43de-8ed0-f6a97a720249,SHELL BT BATOK NP 630_01,1.347664,103.764828,"28 BUKIT BATOK EAST AVENUE 6SINGAPORE, Singapore, 659760",Shell,4,TRUE,24,TRUE,2023-06-06 11:41:38.219974
