[
  {
    "name": "Orchard Central Supercharger",
    "latitude": 1.3007,
    "longitude": 103.83978,
    "address": "181 Orchard Rd, Singapore, Singapore, 238896",
    "currently_open": true,
    "pv_current_in": 0,
    "pv_energy_level": 0,
    "rate_current": 0.28,
    "rate_predicted": null,
    "active": true
  },
  {
    "name": "Nissan Showroom, Johor Jaya",
    "latitude": 1.529448,
    "longitude": 103.816505,
    "address": "1, Jalan Johor Jaya, Taman Perindustrian Plentong, 81750‎ Masai, ‎Johor, Malaysia",
    "currently_open": true,
    "pv_current_in": 0,
    "pv_energy_level": 0,
    "rate_current": 0.27,
    "rate_predicted": null,
    "active": true
  },
  {
    "name": "Hard Rock Hotel Desaru Coast",
    "latitude": 1.540211,
    "longitude": 104.264246,
    "address": "Jln Pantai 3, 81930 Bandar Penawar, Johor, Malaysia",
    "currently_open": true,
    "pv_current_in": 0,
    "pv_energy_level": 0,
    "rate_current": 0.28,
    "rate_predicted": null,
    "active": true
  },
  {
    "name": "Jade Garden Seafood Corner",
    "latitude": 1.348106,
    "longitude": 104.224009,
    "address": "Lot 4785, 1 Jalan Siakap, Kampung Sungai Rengit, 81620, Pengerang, Johor",
    "currently_open": true,
    "pv_current_in": 0,
    "pv_energy_level": 0,
    "rate_current": 0.26,
    "rate_predicted": null,
    "active": true
  },
  {
    "name": "Causeway Point Supercharger",
    "latitude": 1.436111,
    "longitude": 103.786496,
    "address": "1 Woodlands Square, Singapore 738099",
    "currently_open": true,
    "pv_current_in": 0,
    "pv_energy_level": 0,
    "rate_current": 0.27,
    "rate_predicted": null,
    "active": true
  },
  {
    "name": "seri negeri (government building, public carpark)",
    "latitude": 1.545174,
    "longitude": 103.55988,
    "address": "seri negeri (government building, public carpark)",
    "currently_open": true,
    "pv_current_in": 0,
    "pv_energy_level": 0,
    "rate_current": 0.49,
    "rate_predicted": null,
    "active": true
  },
  {
    "name": "Gentari @ XPark Sunway Iskandar (22 kW AC, 60 kW DC)",
    "latitude": 1.3953,
    "longitude": 103.62577,
    "address": "Jalan Medini Selatan 2 Medini Zone F, Bandar Medini Iskandar, 79250 Nusajaya, Johor, Malaysia",
    "currently_open": true,
    "pv_current_in": 0,
    "pv_energy_level": 0,
    "rate_current": 0.52,
    "rate_predicted": null,
    "active": true
  },
  {
    "name": "Waterway Point Supercharger",
    "latitude": 1.406303,
    "longitude": 103.901878,
    "address": "83 Punggol Central, Singapore, Singapore, 828761",
    "currently_open": true,
    "pv_current_in": 0,
    "pv_energy_level": 0,
    "rate_current": 0.27,
    "rate_predicted": null,
    "active": true
  },
  {
    "name": "Century Square Supercharger",
    "latitude": 1.35235,
    "longitude": 103.943846,
    "address": "2 Tampines Central 5, Singapore, Singapore, 529509",
    "currently_open": true,
    "pv_current_in": 0,
    "pv_energy_level": 0,
    "rate_current": 0.27,
    "rate_predicted": null,
    "active": true
  },
  {
    "name": "Volvo Pekin Auto",
    "latitude": 1.516984,
    "longitude": 103.674438,
    "address": "PTD 144228, Taman Sutera Utama, 81300 Skudai, Johor, Malaysia",
    "currently_open": true,
    "pv_current_in": 0,
    "pv_energy_level": 0,
    "rate_current": 0.16,
    "rate_predicted": null,
    "active": true
  },
  {
    "name": "Block 15 Woodlands Loop",
    "latitude": 1.449289,
    "longitude": 103.809175,
    "address": "15 Woodlands Loop, Woodlands‎ 738322, Singapore",
    "currently_open": true,
    "pv_current_in": 0,
    "pv_energy_level": 0,
    "rate_current": 0.23,
    "rate_predicted": null,
    "active": true
  },
  {
    "name": "Goldbell Tuas",
    "latitude": 1.321866,
    "longitude": 103.639587,
    "address": "8 Tuas Avenue 18, Singapore 638892",
    "currently_open": true,
    "pv_current_in": 0,
    "pv_energy_level": 0,
    "rate_current": 0.13,
    "rate_predicted": null,
    "active": true
  },
  {
    "name": "Four Points By Sheraton Desaru (22 kW AC)",
    "latitude": 1.5761964123956436,
    "longitude": 104.20566692948341,
    "address": "Jalan Kempas 2, Taman Desaru Utama, Bandar Penawar, Malaysia, 81930",
    "currently_open": true,
    "pv_current_in": 0,
    "pv_energy_level": 0,
    "rate_current": 0.41,
    "rate_predicted": null,
    "active": true
  },
  {
    "name": "Katong V Supercharger",
    "latitude": 1.302678,
    "longitude": 103.903352,
    "address": "30 East Coast Road, Singapore, Singapore, 428751",
    "currently_open": true,
    "pv_current_in": 0,
    "pv_energy_level": 0,
    "rate_current": 0.21,
    "rate_predicted": null,
    "active": true
  },
  {
    "name": "Carros Centre",
    "latitude": 1.43148,
    "longitude": 103.75279,
    "address": "60 Jln Lam Huat, Singapore 737869",
    "currently_open": true,
    "pv_current_in": 0,
    "pv_energy_level": 0,
    "rate_current": 0.13,
    "rate_predicted": null,
    "active": true
  },
  {
    "name": "Setia Eco Garden Sales Gallery [22kWAC]",
    "latitude": 1.4917392359298465,
    "longitude": 103.58541109090933,
    "address": "Persiaran Lam Setia Utama, Setia Eco Garden, Gelang Patah, Johor, Malaysia",
    "currently_open": true,
    "pv_current_in": 0,
    "pv_energy_level": 0,
    "rate_current": 0.39,
    "rate_predicted": null,
    "active": true
  },
  {
    "name": "Shell Choa Chua Kang",
    "latitude": 1.385636,
    "longitude": 103.746452,
    "address": "20 Choa Chu Kang Dr, Singapore 689717",
    "currently_open": true,
    "pv_current_in": 0,
    "pv_energy_level": 0,
    "rate_current": 0.2,
    "rate_predicted": null,
    "active": true
  },
  {
    "name": "Eikoh Roller International (S) Pte Ltd",
    "latitude": 1.290889,
    "longitude": 103.624422,
    "address": "45 Tuas View Loop Singapore 637699",
    "currently_open": true,
    "pv_current_in": 0,
    "pv_energy_level": 0,
    "rate_current": 0.38,
    "rate_predicted": null,
    "active": true
  },
  {
    "name": "Petronas R&R Gelang Patah Southbound (22 kW AC)",
    "latitude": 1.386627,
    "longitude": 103.593256,
    "address": "LINKEDUA Malaysia - Singapura, 81550, Gelang Patah",
    "currently_open": true,
    "pv_current_in": 0,
    "pv_energy_level": 0,
    "rate_current": 0.47,
    "rate_predicted": null,
    "active": true
  },
  {
    "name": "Hyundai Skudai Kiri",
    "latitude": 1.48965,
    "longitude": 103.711027,
    "address": "Kampung Skudai Kiri, 81200 Johor Bahru, Johor, Malaysia",
    "currently_open": true,
    "pv_current_in": 0,
    "pv_energy_level": 0,
    "rate_current": 0.19,
    "rate_predicted": null,
    "active": true
  },
  {
    "name": "Renaissance Hotel JB",
    "latitude": 1.4944408897944281,
    "longitude": 103.81149817047027,
    "address": "No. 53-01 & 55, 01, Jalan Permas 10/1, Bandar Baru Permas Jaya, 81750 Masai, Johor, Malaysia",
    "currently_open": true,
    "pv_current_in": 0,
    "pv_energy_level": 0,
    "rate_current": 0.2,
    "rate_predicted": null,
    "active": true
  },
  {
    "name": "Zenith Lifestyle Mall (11 kW AC; 50 kW DC)",
    "latitude": 1.4635729,
    "longitude": 103.7622119,
    "address": "82C, Jalan Trus, Bandar Johor Bahru, 80000 Johor Bahru, Johor, Malaysia",
    "currently_open": true,
    "pv_current_in": 0,
    "pv_energy_level": 0,
    "rate_current": 0.42,
    "rate_predicted": null,
    "active": true
  },
  {
    "name": "EcoWorld Gallery (1 x 22 kW, 1 x 3.7 kW)",
    "latitude": 1.578823,
    "longitude": 103.722933,
    "address": "81100‎ Tebrau‎ Johor, Malaysia",
    "currently_open": true,
    "pv_current_in": 0,
    "pv_energy_level": 0,
    "rate_current": 0.4,
    "rate_predicted": null,
    "active": true
  },
  {
    "name": "Singapore Zoo",
    "latitude": 1.404922,
    "longitude": 103.78798,
    "address": "Mandai Lake Road 80, 729826 Singapore",
    "currently_open": true,
    "pv_current_in": 0,
    "pv_energy_level": 0,
    "rate_current": 0.13,
    "rate_predicted": null,
    "active": true
  },
  {
    "name": "Bedok Point",
    "latitude": 1.324702,
    "longitude": 103.932418,
    "address": "799 Upper Changi Road ",
    "currently_open": true,
    "pv_current_in": 0,
    "pv_energy_level": 0,
    "rate_current": 0.11,
    "rate_predicted": null,
    "active": true
  },
  {
    "name": "ACO HQ Johor Bahru (180kW)",
    "latitude": 1.535961,
    "longitude": 103.75342,
    "address": "14, Jalan Firma 3, Kawasan Perindustrian Tebrau 4, 81100 Johor Bahru, Johor, Malaysia",
    "currently_open": true,
    "pv_current_in": 0,
    "pv_energy_level": 0,
    "rate_current": 0.26,
    "rate_predicted": null,
    "active": true
  },
  {
    "name": "NTU Research Techno Plaza",
    "latitude": 1.343423,
    "longitude": 103.679373,
    "address": "50 Nanyang Ave, Singapore 639798",
    "currently_open": true,
    "pv_current_in": 0,
    "pv_energy_level": 0,
    "rate_current": 0.25,
    "rate_predicted": null,
    "active": true
  },
  {
    "name": "Petronas Pasir Gudang Highway 3 (1 x 22 kW)",
    "latitude": 1.522925,
    "longitude": 103.731079,
    "address": "81800‎ Kota Tinggi‎ Johore, Malaysia",
    "currently_open": true,
    "pv_current_in": 0,
    "pv_energy_level": 0,
    "rate_current": 0.43,
    "rate_predicted": null,
    "active": true
  },
  {
    "name": "Juice+: Changi Airport Terminal 2",
    "latitude": 1.352961,
    "longitude": 103.988037,
    "address": "9X3Q+56 Singapore",
    "currently_open": true,
    "pv_current_in": 0,
    "pv_energy_level": 0,
    "rate_current": 0.33,
    "rate_predicted": null,
    "active": true
  },
  {
    "name": "Tagore 23",
    "latitude": 1.386026,
    "longitude": 103.828227,
    "address": "23 Tagore Ln, Singapore 787601",
    "currently_open": true,
    "pv_current_in": 0,
    "pv_energy_level": 0,
    "rate_current": 0.9,
    "rate_predicted": null,
    "active": true
  },
  {
    "name": "Jen Johor Puteri Harbour (2 x 22 kW)",
    "latitude": 1.417565,
    "longitude": 103.656614,
    "address": "Persiaran Puteri Selatan, 79000 Perkampungan (Felcra) Tebing Runtuh, Johore, Malaysia",
    "currently_open": true,
    "pv_current_in": 0,
    "pv_energy_level": 0,
    "rate_current": 0.36,
    "rate_predicted": null,
    "active": true
  },
  {
    "name": "Harvest@Woodlands by EVone Charging",
    "latitude": 1.4514023,
    "longitude": 103.7914704,
    "address": "280 Woodlands Industrial Park E5, Singapore 757322",
    "currently_open": true,
    "pv_current_in": 0,
    "pv_energy_level": 0,
    "rate_current": 0.35,
    "rate_predicted": null,
    "active": true
  },
  {
    "name": "BMW Auto Bavaria Tebrau",
    "latitude": 1.54998,
    "longitude": 103.792759,
    "address": "3B, Persiaran Desa Tebrau, Taman Desa Tebrau, 81100 Johor Bahru, Johor, Malaysia",
    "currently_open": true,
    "pv_current_in": 0,
    "pv_energy_level": 0,
    "rate_current": 0.23,
    "rate_predicted": null,
    "active": true
  },
  {
    "name": "Palkom Motors",
    "latitude": 1.530922,
    "longitude": 103.780719,
    "address": "No. 1, Jalan Kota Tinggi, Batu 7 1/4, Taman Pandan, Johor, Kawasan Perindustrian Pandan, 81100 Johor Bahru, Johor, Malaysia",
    "currently_open": true,
    "pv_current_in": 0,
    "pv_energy_level": 0,
    "rate_current": 0.13,
    "rate_predicted": null,
    "active": true
  },
  {
    "name": "Shell Dunearn University",
    "latitude": 1.323543,
    "longitude": 103.817429,
    "address": "288 Dunearn Rd, Singapore 299557",
    "currently_open": true,
    "pv_current_in": 0,
    "pv_energy_level": 0,
    "rate_current": 0.24,
    "rate_predicted": null,
    "active": true
  },
  {
    "name": "Petronas Kawasan Perindustrian Kota Puteri (22 kW AC)",
    "latitude": 1.506207,
    "longitude": 103.842717,
    "address": "Petronas, Kawasan Perindustrian Kota Puteri, 81750 Masai, Johor, Malaysia",
    "currently_open": true,
    "pv_current_in": 0,
    "pv_energy_level": 0,
    "rate_current": 0.53,
    "rate_predicted": null,
    "active": true
  },
  {
    "name": "home",
    "latitude": 1.493149,
    "longitude": 103.860469,
    "address": "Taman Bukit Rinting ",
    "currently_open": true,
    "pv_current_in": 0,
    "pv_energy_level": 0,
    "rate_current": 0.4,
    "rate_predicted": null,
    "active": true
  },
  {
    "name": "West Coast Plaza Supercharger",
    "latitude": 1.303732,
    "longitude": 103.76663,
    "address": "154 West Coast Road, Singapore, 127371",
    "currently_open": true,
    "pv_current_in": 0,
    "pv_energy_level": 0,
    "rate_current": 0.29,
    "rate_predicted": null,
    "active": true
  },
  {
    "name": "The Star Vista Supercharger",
    "latitude": 1.306932,
    "longitude": 103.788222,
    "address": "1 Vista Exchange Green, Singapore 138617",
    "currently_open": true,
    "pv_current_in": 0,
    "pv_energy_level": 0,
    "rate_current": 0.27,
    "rate_predicted": null,
    "active": true
  },
  {
    "name": "HSL Waterfront @ Penjuru",
    "latitude": 1.305972,
    "longitude": 103.730418,
    "address": "42D Penjuru Road, Singapore 609162",
    "currently_open": true,
    "pv_current_in": 0,
    "pv_energy_level": 0,
    "rate_current": 0.24,
    "rate_predicted": null,
    "active": true
  },
  {
    "name": "Nordcom One",
    "latitude": 1.444324,
    "longitude": 103.814023,
    "address": "5a Gambas Cres, Singapore",
    "currently_open": true,
    "pv_current_in": 0,
    "pv_energy_level": 0,
    "rate_current": 0.11,
    "rate_predicted": null,
    "active": true
  },
  {
    "name": "SICC Island SP Charger",
    "latitude": 1.35895,
    "longitude": 103.819354,
    "address": "180 Island Club Rd, Singapore 578774",
    "currently_open": true,
    "pv_current_in": 0,
    "pv_energy_level": 0,
    "rate_current": 0.22,
    "rate_predicted": null,
    "active": true
  },
  {
    "name": "Millenia Walk Supercharger",
    "latitude": 1.292254,
    "longitude": 103.859707,
    "address": "9 Raffles Blvd, Singapore 039596",
    "currently_open": true,
    "pv_current_in": 0,
    "pv_energy_level": 0,
    "rate_current": 0.26,
    "rate_predicted": null,
    "active": true
  },
  {
    "name": "Shell Boon Lay",
    "latitude": 1.343959,
    "longitude": 103.707764,
    "address": "2 Boon Lay Ave, Singapore 649960",
    "currently_open": true,
    "pv_current_in": 0,
    "pv_energy_level": 0,
    "rate_current": 0.14,
    "rate_predicted": null,
    "active": true
  },
  {
    "name": "Sand & Sandals Resort, Desaru (MyEVOC 1x 22 kW)",
    "latitude": 1.560694,
    "longitude": 104.253109,
    "address": "29, Jalan Desaru, Desaru, 82200 Bandar Penawar, Johor, Malaysia",
    "currently_open": true,
    "pv_current_in": 0,
    "pv_energy_level": 0,
    "rate_current": 0.47,
    "rate_predicted": null,
    "active": true
  },
  {
    "name": "Shell Yishun",
    "latitude": 1.430866,
    "longitude": 103.833008,
    "address": "1 Yishun Street 11, Singapore 768642",
    "currently_open": true,
    "pv_current_in": 0,
    "pv_energy_level": 0,
    "rate_current": 0.12,
    "rate_predicted": null,
    "active": true
  },
  {
    "name": "Orchid Country Club",
    "latitude": 1.41139,
    "longitude": 103.84436,
    "address": "Orchid Club Road 1, 769162 Singapore",
    "currently_open": true,
    "pv_current_in": 0,
    "pv_energy_level": 0,
    "rate_current": 0.19,
    "rate_predicted": null,
    "active": true
  },
  {
    "name": "Shell 648 Dunearn Rd",
    "latitude": 1.3309944,
    "longitude": 103.7991123,
    "address": "648 Dunearn Road",
    "currently_open": true,
    "pv_current_in": 0,
    "pv_energy_level": 0,
    "rate_current": 0.2,
    "rate_predicted": null,
    "active": true
  },
  {
    "name": "Juice+: Gain City Sungei Kadut",
    "latitude": 1.412927,
    "longitude": 103.7459779,
    "address": "71 Sungei Kadut Dr, Level 2, Singapore 729577",
    "currently_open": true,
    "pv_current_in": 0,
    "pv_energy_level": 0,
    "rate_current": 0.3,
    "rate_predicted": null,
    "active": true
  },
  {
    "name": "Biopolis",
    "latitude": 1.303518,
    "longitude": 103.792513,
    "address": "31 Biopolis Way Singapore 138668",
    "currently_open": true,
    "pv_current_in": 0,
    "pv_energy_level": 0,
    "rate_current": 0.8,
    "rate_predicted": null,
    "active": true
  },
  {
    "name": "City Square Mall (2)",
    "latitude": 1.3113234941054386,
    "longitude": 103.8563217359124,
    "address": "180 Kitchener Rd, Singapore 208539",
    "currently_open": true,
    "pv_current_in": 0,
    "pv_energy_level": 0,
    "rate_current": 0.2,
    "rate_predicted": null,
    "active": true
  },
  {
    "name": "Republic Plaza",
    "latitude": 1.283519,
    "longitude": 103.850595,
    "address": "9 Raffles Place, Singapore 048619",
    "currently_open": true,
    "pv_current_in": 0,
    "pv_energy_level": 0,
    "rate_current": 0.14,
    "rate_predicted": null,
    "active": true
  },
  {
    "name": "Business Aviation Complex",
    "latitude": 1.417807,
    "longitude": 103.863333,
    "address": "700 West Camp Road, Singapore",
    "currently_open": true,
    "pv_current_in": 0,
    "pv_energy_level": 0,
    "rate_current": 0.25,
    "rate_predicted": null,
    "active": true
  },
  {
    "name": "Bukit Panjang Plaza",
    "latitude": 1.379987,
    "longitude": 103.764397,
    "address": "1 Jelebu Rd, Singapore 677743",
    "currently_open": true,
    "pv_current_in": 0,
    "pv_energy_level": 0,
    "rate_current": 0.19,
    "rate_predicted": null,
    "active": true
  },
  {
    "name": "CDG Engie - Singapore University Of Social Sciences (SUSS/SIM)",
    "latitude": 1.329017,
    "longitude": 103.776129,
    "address": "Singapore, Clementi Rd, #463号SG",
    "currently_open": true,
    "pv_current_in": 0,
    "pv_energy_level": 0,
    "rate_current": 0.62,
    "rate_predicted": null,
    "active": true
  },
  {
    "name": "Sembawang Country Club",
    "latitude": 1.418225,
    "longitude": 103.815461,
    "address": "249 Sembawang Rd, Singapore 758352",
    "currently_open": true,
    "pv_current_in": 0,
    "pv_energy_level": 0,
    "rate_current": 0.22,
    "rate_predicted": null,
    "active": true
  },
  {
    "name": "KSL City Mall",
    "latitude": 1.485534,
    "longitude": 103.762308,
    "address": "Jalan Beruang, 80250 Taman Tasek, Johore, Malaysia",
    "currently_open": true,
    "pv_current_in": 0,
    "pv_energy_level": 0,
    "rate_current": 0.13,
    "rate_predicted": null,
    "active": true
  },
  {
    "name": "SP Group: CSC Changi",
    "latitude": 1.3915290769316817,
    "longitude": 103.98520262309323,
    "address": "2 Netheravon Rd, Singapore 508503",
    "currently_open": true,
    "pv_current_in": 0,
    "pv_energy_level": 0,
    "rate_current": 0.2,
    "rate_predicted": null,
    "active": true
  },
  {
    "name": "BlueSG open to EVs: BLK 476 Upp Serangoon View",
    "latitude": 1.377267,
    "longitude": 103.903628,
    "address": "476 Upper Serangoon View, Singapore 530476",
    "currently_open": true,
    "pv_current_in": 0,
    "pv_energy_level": 0,
    "rate_current": 0.46,
    "rate_predicted": null,
    "active": true
  },
  {
    "name": "Penjuru Close #01-11by EVone Charging",
    "latitude": 1.313091,
    "longitude": 103.731755,
    "address": "28F Penjuru Close #01-11",
    "currently_open": true,
    "pv_current_in": 0,
    "pv_energy_level": 0,
    "rate_current": 0.37,
    "rate_predicted": null,
    "active": true
  },
  {
    "name": "Corporation Place",
    "latitude": 1.32602,
    "longitude": 103.719828,
    "address": "2 Corporation Rd, Singapore 618494",
    "currently_open": true,
    "pv_current_in": 0,
    "pv_energy_level": 0,
    "rate_current": 0.17,
    "rate_predicted": null,
    "active": true
  },
  {
    "name": "Shell Bukit Batok",
    "latitude": 1.350191,
    "longitude": 103.738495,
    "address": "11 Bukit Batok West Ave 3, Singapore 659166",
    "currently_open": true,
    "pv_current_in": 0,
    "pv_energy_level": 0,
    "rate_current": 0.17,
    "rate_predicted": null,
    "active": true
  },
  {
    "name": "BlueSG open to EVs: Blk 212, Serangoon Ave 4",
    "latitude": 1.356931,
    "longitude": 103.873222,
    "address": "212 Serangoon Ave 4, Singapore 550212",
    "currently_open": true,
    "pv_current_in": 0,
    "pv_energy_level": 0,
    "rate_current": 0.44,
    "rate_predicted": null,
    "active": true
  },
  {
    "name": "Johor Premium Outlets (3.7 kW AC)",
    "latitude": 1.60292,
    "longitude": 103.622421,
    "address": "Jalan Premium Outlets, 81400 Senai, Johore, Malaysia",
    "currently_open": true,
    "pv_current_in": 0,
    "pv_energy_level": 0,
    "rate_current": 0.33,
    "rate_predicted": null,
    "active": true
  },
  {
    "name": "Marina Bay Cruise Center Singapore",
    "latitude": 1.266151,
    "longitude": 103.860488,
    "address": "Marina Coastal Drive, Singapore",
    "currently_open": true,
    "pv_current_in": 0,
    "pv_energy_level": 0,
    "rate_current": 0.34,
    "rate_predicted": null,
    "active": true
  },
  {
    "name": "Thistle Hotel Multi Level Car Park (3 pin)",
    "latitude": 1.462316,
    "longitude": 103.74322,
    "address": "Jalan Sungai Chat, Sri Gelam, 80100 Johor Bahru, Johor, Malaysia",
    "currently_open": true,
    "pv_current_in": 0,
    "pv_energy_level": 0,
    "rate_current": 0.42,
    "rate_predicted": null,
    "active": true
  },
  {
    "name": "BlueSG open to EVs: Blk 678A, Choa Chu Kang Crescent",
    "latitude": 1.401979,
    "longitude": 103.745077,
    "address": "678A Choa Chu Kang Cres, Singapore 681678",
    "currently_open": true,
    "pv_current_in": 0,
    "pv_energy_level": 0,
    "rate_current": 0.52,
    "rate_predicted": null,
    "active": true
  },
  {
    "name": "Shell Bukit Batok",
    "latitude": 1.347825,
    "longitude": 103.764854,
    "address": "28 Bukit Batok East Ave 6, Singapore 659760",
    "currently_open": true,
    "pv_current_in": 0,
    "pv_energy_level": 0,
    "rate_current": 0.17,
    "rate_predicted": null,
    "active": true
  },
  {
    "name": "Temasek Club",
    "latitude": 1.346985,
    "longitude": 103.780824,
    "address": "131 Rifle Range Rd, #04-04, Singapore 588406",
    "currently_open": true,
    "pv_current_in": 0,
    "pv_energy_level": 0,
    "rate_current": 0.12,
    "rate_predicted": null,
    "active": true
  },
  {
    "name": "Eco Spring",
    "latitude": 1.588156,
    "longitude": 103.757771,
    "address": "2, Jalan Ekoflora Utama, 81100 Johor Bahru, Johor, Malaysia",
    "currently_open": true,
    "pv_current_in": 0,
    "pv_energy_level": 0,
    "rate_current": 0.1,
    "rate_predicted": null,
    "active": true
  },
  {
    "name": "Starbucks Seri Austin DT",
    "latitude": 1.575883,
    "longitude": 103.747829,
    "address": "Jalan Seri Austin 1, Taman Seri Austin, 81100 Johor Bahru, Johor",
    "currently_open": true,
    "pv_current_in": 0,
    "pv_energy_level": 0,
    "rate_current": 0.24,
    "rate_predicted": null,
    "active": true
  },
  {
    "name": "Starbucks Shell Seri Alam DT (22 kW AC)",
    "latitude": 1.5107954893126725,
    "longitude": 103.87764133102405,
    "address": "Bandar Baru Seri Alam, 81750 Masai, Johor, Malaysia",
    "currently_open": true,
    "pv_current_in": 0,
    "pv_energy_level": 0,
    "rate_current": 0.39,
    "rate_predicted": null,
    "active": true
  },
  {
    "name": "MEDINI 7 CORPORATE OFFICE (1 x 3.7 kW)",
    "latitude": 1.413718,
    "longitude": 103.628348,
    "address": "Jalan Medini Sentral 5, Bandar Medini Iskandar Malaysia, 79250, Iskandar Puteri",
    "currently_open": true,
    "pv_current_in": 0,
    "pv_energy_level": 0,
    "rate_current": 0.38,
    "rate_predicted": null,
    "active": true
  },
  {
    "name": "WATT - The Rochelle",
    "latitude": 1.332928,
    "longitude": 103.790957,
    "address": "188 Keng Lee Rd, Singapore 308414",
    "currently_open": true,
    "pv_current_in": 0,
    "pv_energy_level": 0,
    "rate_current": 0.19,
    "rate_predicted": null,
    "active": true
  },
  {
    "name": "Tanah Merah Country Club Garden Course",
    "latitude": 1.328246,
    "longitude": 103.979775,
    "address": "25 Changi Coast Road, Singapore 499803",
    "currently_open": true,
    "pv_current_in": 0,
    "pv_energy_level": 0,
    "rate_current": 0.38,
    "rate_predicted": null,
    "active": true
  },
  {
    "name": "MYDIN Mutiara Rini (3 x 22 kW AC)",
    "latitude": 1.5151474195350636,
    "longitude": 103.6353126168251,
    "address": "7, Persiaran Jaya 1, Mutiara Rini, 81300 Johor Bahru, Johor, Malaysia",
    "currently_open": true,
    "pv_current_in": 0,
    "pv_energy_level": 0,
    "rate_current": 0.33,
    "rate_predicted": null,
    "active": true
  },
  {
    "name": "Petronas Toll Skudai Northbound",
    "latitude": 1.579332,
    "longitude": 103.650349,
    "address": "81400 Tampoi, Johore, Malaysia",
    "currently_open": true,
    "pv_current_in": 0,
    "pv_energy_level": 0,
    "rate_current": 0.31,
    "rate_predicted": null,
    "active": true
  },
  {
    "name": "Charge+: Ci Yuan Community Club Basement Carpark",
    "latitude": 1.375239,
    "longitude": 103.882883,
    "address": "51 Hougang Avenue 9 Singapore 538776",
    "currently_open": true,
    "pv_current_in": 0,
    "pv_energy_level": 0,
    "rate_current": 0.48,
    "rate_predicted": null,
    "active": true
  },
  {
    "name": "Singapore Polytechnic",
    "latitude": 1.309943,
    "longitude": 103.777368,
    "address": "500 Dover Rd, Singapore 139651",
    "currently_open": true,
    "pv_current_in": 0,
    "pv_energy_level": 0,
    "rate_current": 0.21,
    "rate_predicted": null,
    "active": true
  },
  {
    "name": "West Park BizCentral",
    "latitude": 1.315185,
    "longitude": 103.695214,
    "address": "32 Pioneer Cres, Singapore 628561",
    "currently_open": true,
    "pv_current_in": 0,
    "pv_energy_level": 0,
    "rate_current": 0.2,
    "rate_predicted": null,
    "active": true
  },
  {
    "name": "MapleTree Pionner Logistics Hub",
    "latitude": 1.3177871878172338,
    "longitude": 103.65339044017435,
    "address": "76 Pionner Road ",
    "currently_open": true,
    "pv_current_in": 0,
    "pv_energy_level": 0,
    "rate_current": 0.31,
    "rate_predicted": null,
    "active": true
  },
  {
    "name": "SP Group: Techplace II",
    "latitude": 1.377181,
    "longitude": 103.866439,
    "address": "5012 Ang Mo Kio Ave 5, Singapore 569872",
    "currently_open": true,
    "pv_current_in": 0,
    "pv_energy_level": 0,
    "rate_current": 0.22,
    "rate_predicted": null,
    "active": true
  },
  {
    "name": "Tanah Merah Ferry Terminal",
    "latitude": 1.31412,
    "longitude": 103.9876,
    "address": "50 Tanah Merah Ferry Rd, Singapore 498833",
    "currently_open": true,
    "pv_current_in": 0,
    "pv_energy_level": 0,
    "rate_current": 0.26,
    "rate_predicted": null,
    "active": true
  },
  {
    "name": "DC Fast Charger @JEGS (Coming Soon)",
    "latitude": 1.303421,
    "longitude": 103.686712,
    "address": "45 Shipyard Rd, 45, Singapore 628136",
    "currently_open": true,
    "pv_current_in": 0,
    "pv_energy_level": 0,
    "rate_current": 0.35,
    "rate_predicted": null,
    "active": true
  },
  {
    "name": "Sunway Citrine Hub (3 pin)",
    "latitude": 1.390931,
    "longitude": 103.639452,
    "address": "Persiaran Medini 3, Sunway City Iskandar Puteri, 79250 Iskandar Puteri, Johor, Malaysia",
    "currently_open": true,
    "pv_current_in": 0,
    "pv_energy_level": 0,
    "rate_current": 0.26,
    "rate_predicted": null,
    "active": true
  },
  {
    "name": "Shell Ang Mo Kio",
    "latitude": 1.367883,
    "longitude": 103.844826,
    "address": "3535 Ang Mo Kio Ave 6, Singapore 569839",
    "currently_open": true,
    "pv_current_in": 0,
    "pv_energy_level": 0,
    "rate_current": 0.16,
    "rate_predicted": null,
    "active": true
  },
  {
    "name": "SP Group: Temasek Polytechnic Carpark E",
    "latitude": 1.347611,
    "longitude": 103.930455,
    "address": "33 Tampines Ave 1, Singapore",
    "currently_open": true,
    "pv_current_in": 0,
    "pv_energy_level": 0,
    "rate_current": 0.39,
    "rate_predicted": null,
    "active": true
  },
  {
    "name": "Gardens by the Bay - Main Entrance Carpark",
    "latitude": 1.281584,
    "longitude": 103.866253,
    "address": "18 Marina Gardens Dr",
    "currently_open": true,
    "pv_current_in": 0,
    "pv_energy_level": 0,
    "rate_current": 0.42,
    "rate_predicted": null,
    "active": true
  },
  {
    "name": "Woodlands Industrial Park",
    "latitude": 1.451869,
    "longitude": 103.796326,
    "address": "158 Woodlands Industrial Park E5, Singapore 757867",
    "currently_open": true,
    "pv_current_in": 0,
    "pv_energy_level": 0,
    "rate_current": 0.25,
    "rate_predicted": null,
    "active": true
  },
  {
    "name": "Shell Punggol",
    "latitude": 1.404761,
    "longitude": 103.906631,
    "address": "821 Punggol Rd, Singapore 829169",
    "currently_open": true,
    "pv_current_in": 0,
    "pv_energy_level": 0,
    "rate_current": 0.13,
    "rate_predicted": null,
    "active": true
  },
  {
    "name": "BlueSG open to EVs: Blk 346, Bt Batok St 34",
    "latitude": 1.362406,
    "longitude": 103.750959,
    "address": "347 Bukit Batok Street 34, Singapore 650347",
    "currently_open": true,
    "pv_current_in": 0,
    "pv_energy_level": 0,
    "rate_current": 0.43,
    "rate_predicted": null,
    "active": true
  },
  {
    "name": "BlueSG open to EVs: Blk 472, Fernvale Street",
    "latitude": 1.397119,
    "longitude": 103.881632,
    "address": "472 Fernvale St, Singapore 792472",
    "currently_open": true,
    "pv_current_in": 0,
    "pv_energy_level": 0,
    "rate_current": 0.44,
    "rate_predicted": null,
    "active": true
  },
  {
    "name": "BlueSG open to EVs: 417 Pasir Ris Dr 6",
    "latitude": 1.372044,
    "longitude": 103.955051,
    "address": "417 Pasir Ris Drive 6, Singapore 510417",
    "currently_open": true,
    "pv_current_in": 0,
    "pv_energy_level": 0,
    "rate_current": 0.38,
    "rate_predicted": null,
    "active": true
  },
  {
    "name": "Tada Station",
    "latitude": 1.359834,
    "longitude": 103.833595,
    "address": "40 Sin Ming Lane, Midview City, Singapore 573958",
    "currently_open": true,
    "pv_current_in": 0,
    "pv_energy_level": 0,
    "rate_current": 0.12,
    "rate_predicted": null,
    "active": true
  },
  {
    "name": "BlueSG Charger (4.8kW AC)",
    "latitude": 1.31248,
    "longitude": 103.874478,
    "address": "114A Lor 3 Geylang, Singapore 382114 Lor 3 Geylang, Singapore 382114",
    "currently_open": true,
    "pv_current_in": 0,
    "pv_energy_level": 0,
    "rate_current": 0.25,
    "rate_predicted": null,
    "active": true
  },
  {
    "name": "Shell Telok Blangah",
    "latitude": 1.270457,
    "longitude": 103.812772,
    "address": "450 Telok Blangah Road, Singapore 098857",
    "currently_open": true,
    "pv_current_in": 0,
    "pv_energy_level": 0,
    "rate_current": 0.19,
    "rate_predicted": null,
    "active": true
  },
  {
    "name": "Shell Recharge Geylang Rd",
    "latitude": 1.3119747225104634,
    "longitude": 103.87556815916649,
    "address": "203 Geylang Road ",
    "currently_open": true,
    "pv_current_in": 0,
    "pv_energy_level": 0,
    "rate_current": 0.25,
    "rate_predicted": null,
    "active": true
  },
  {
    "name": "BlueSG open to EVs: 21 Jalan Masjid",
    "latitude": 1.320339,
    "longitude": 103.912298,
    "address": "21 Jln Masjid, Singapore 418946",
    "currently_open": true,
    "pv_current_in": 0,
    "pv_energy_level": 0,
    "rate_current": 0.35,
    "rate_predicted": null,
    "active": true
  },
  {
    "name": "Starbucks Bandar Seri Alam DT (22 kW AC)",
    "latitude": 1.496464,
    "longitude": 103.871663,
    "address": "8, Jln Suria, Bandar Baru Seri Alam, 81750 Masai, Johor",
    "currently_open": true,
    "pv_current_in": 0,
    "pv_energy_level": 0,
    "rate_current": 0.4,
    "rate_predicted": null,
    "active": true
  },
  {
    "name": "Aste Global -1 Tuas Link 1 by EVone Charging",
    "latitude": 1.3334408689452686,
    "longitude": 103.63838921925968,
    "address": "1 Tuas Link 1, Singapore 638583",
    "currently_open": true,
    "pv_current_in": 0,
    "pv_energy_level": 0,
    "rate_current": 0.44,
    "rate_predicted": null,
    "active": true
  },
  {
    "name": "Shell Sengkang",
    "latitude": 1.391564,
    "longitude": 103.892738,
    "address": "61 Sengkang E Rd, Singapore 545015",
    "currently_open": true,
    "pv_current_in": 0,
    "pv_energy_level": 0,
    "rate_current": 0.14,
    "rate_predicted": null,
    "active": true
  },
  {
    "name": "Shell Serangoon Gardens",
    "latitude": 1.363386,
    "longitude": 103.867302,
    "address": "49 Serangoon Garden Way, Singapore 555944",
    "currently_open": true,
    "pv_current_in": 0,
    "pv_energy_level": 0,
    "rate_current": 0.23,
    "rate_predicted": null,
    "active": true
  },
  {
    "name": "Techplace I",
    "latitude": 1.360599,
    "longitude": 103.856128,
    "address": "4008 Ang Mo Kio Ave 10, Singapore 569625",
    "currently_open": true,
    "pv_current_in": 0,
    "pv_energy_level": 0,
    "rate_current": 0.11,
    "rate_predicted": null,
    "active": true
  },
  {
    "name": "Paradigm Mall JB",
    "latitude": 1.515891,
    "longitude": 103.685631,
    "address": "Lot no. 4FK-12, 4th floor, Paradigm Mall, Taman Bukit Mewah, 81200 Johor Bahru, Johor, Malaysia",
    "currently_open": true,
    "pv_current_in": 0,
    "pv_energy_level": 0,
    "rate_current": 0.16,
    "rate_predicted": null,
    "active": true
  },
  {
    "name": "Hougang Mall",
    "latitude": 1.3725894,
    "longitude": 103.8937225,
    "address": "90 Hougang Avenue 10",
    "currently_open": true,
    "pv_current_in": 0,
    "pv_energy_level": 0,
    "rate_current": 0.12,
    "rate_predicted": null,
    "active": true
  },
  {
    "name": "BlueSG open to EVs: Blk 129A, Bt Merah View",
    "latitude": 1.283617,
    "longitude": 103.823466,
    "address": "129A Bukit Merah View, Singapore 151129",
    "currently_open": true,
    "pv_current_in": 0,
    "pv_energy_level": 0,
    "rate_current": 0.43,
    "rate_predicted": null,
    "active": true
  },
  {
    "name": "Charge+: Woodlands Waterfront Carpark",
    "latitude": 1.451662,
    "longitude": 103.778802,
    "address": "FQ2H+MG Singapore",
    "currently_open": true,
    "pv_current_in": 0,
    "pv_energy_level": 0,
    "rate_current": 0.37,
    "rate_predicted": null,
    "active": true
  },
  {
    "name": "Charge+: 29A Marsiling Drive",
    "latitude": 1.442634,
    "longitude": 103.772981,
    "address": "29A Marsiling Dr, Singapore 731029",
    "currently_open": true,
    "pv_current_in": 0,
    "pv_energy_level": 0,
    "rate_current": 0.28,
    "rate_predicted": null,
    "active": true
  },
  {
    "name": "Great World Supercharger",
    "latitude": 1.293346,
    "longitude": 103.832078,
    "address": "1 Kim Seng Promenade, Singapore 237994",
    "currently_open": true,
    "pv_current_in": 0,
    "pv_energy_level": 0,
    "rate_current": 0.24,
    "rate_predicted": null,
    "active": true
  },
  {
    "name": "BlueSG open to EVs: Blk 512A, Serangoon North Ave 4",
    "latitude": 1.370763,
    "longitude": 103.875194,
    "address": "512A Serangoon North Ave 4, Singapore 551512",
    "currently_open": true,
    "pv_current_in": 0,
    "pv_energy_level": 0,
    "rate_current": 0.51,
    "rate_predicted": null,
    "active": true
  },
  {
    "name": "Shell Dunman",
    "latitude": 1.309945,
    "longitude": 103.901031,
    "address": "No. 743 Dunman Rd, Singapore 439241",
    "currently_open": true,
    "pv_current_in": 0,
    "pv_energy_level": 0,
    "rate_current": 0.12,
    "rate_predicted": null,
    "active": true
  },
  {
    "name": "Pioneer Centre",
    "latitude": 1.3326227,
    "longitude": 103.6969065,
    "address": "1 Soon Lee St, Singapore 627605",
    "currently_open": true,
    "pv_current_in": 0,
    "pv_energy_level": 0,
    "rate_current": 0.14,
    "rate_predicted": null,
    "active": true
  },
  {
    "name": "National Service Resort & Country Club",
    "latitude": 1.317674999999999,
    "longitude": 103.974319,
    "address": "10 Changi Coast Walk, Singapore 499739",
    "currently_open": true,
    "pv_current_in": 0,
    "pv_energy_level": 0,
    "rate_current": 0.38,
    "rate_predicted": null,
    "active": true
  },
  {
    "name": "BlueSG open to EVs: Blk 31A, Eunos Crescent",
    "latitude": 1.320107,
    "longitude": 103.901609,
    "address": "31A Eunos Cres, Singapore 401031",
    "currently_open": true,
    "pv_current_in": 0,
    "pv_energy_level": 0,
    "rate_current": 0.43,
    "rate_predicted": null,
    "active": true
  },
  {
    "name": "BlueSG open to EVs: BLK 241A, Bt Batok East Ave 5",
    "latitude": 1.350628,
    "longitude": 103.755377,
    "address": "239 Bukit Batok East Ave 5, Block 239, Singapore 650239",
    "currently_open": true,
    "pv_current_in": 0,
    "pv_energy_level": 0,
    "rate_current": 0.49,
    "rate_predicted": null,
    "active": true
  },
  {
    "name": "Juice+: Marina Country Club",
    "latitude": 1.415565,
    "longitude": 103.899791,
    "address": "11 Northshore Drive Singapore 828670",
    "currently_open": true,
    "pv_current_in": 0,
    "pv_energy_level": 0,
    "rate_current": 0.27,
    "rate_predicted": null,
    "active": true
  },
  {
    "name": "CDG 455A Segar Rd",
    "latitude": 1.3876904485472563,
    "longitude": 103.77133410158996,
    "address": "455A Segar Rd, 新加坡 671455",
    "currently_open": true,
    "pv_current_in": 0,
    "pv_energy_level": 0,
    "rate_current": 0.17,
    "rate_predicted": null,
    "active": true
  },
  {
    "name": "CDGE: 57A Teban Gardens Road",
    "latitude": 1.322502,
    "longitude": 103.737148,
    "address": "57A Teban Gardens Rd, Singapore 601057",
    "currently_open": true,
    "pv_current_in": 0,
    "pv_energy_level": 0,
    "rate_current": 0.28,
    "rate_predicted": null,
    "active": true
  },
  {
    "name": "BlueSG open to EVs: Blk 4 Queens Road",
    "latitude": 1.319338,
    "longitude": 103.808723,
    "address": "4 Queen's Rd, Singapore 260004",
    "currently_open": true,
    "pv_current_in": 0,
    "pv_energy_level": 0,
    "rate_current": 0.37,
    "rate_predicted": null,
    "active": true
  },
  {
    "name": "BlueSG open to EVs: Blk 112, Bishan Street 12",
    "latitude": 1.346635,
    "longitude": 103.848961,
    "address": "112 Bishan Street 12, Singapore 570112",
    "currently_open": true,
    "pv_current_in": 0,
    "pv_energy_level": 0,
    "rate_current": 0.45,
    "rate_predicted": null,
    "active": true
  },
  {
    "name": "Charge+: Les Mains Patisserie",
    "latitude": 1.315606,
    "longitude": 103.925587,
    "address": "47 Jalan Tua Kong Singapore 457247",
    "currently_open": true,
    "pv_current_in": 0,
    "pv_energy_level": 0,
    "rate_current": 0.29,
    "rate_predicted": null,
    "active": true
  },
  {
    "name": "Shell Newton Hooper",
    "latitude": 1.311417,
    "longitude": 103.843102,
    "address": "150 Bukit Timah Rd, Singapore 229846",
    "currently_open": true,
    "pv_current_in": 0,
    "pv_energy_level": 0,
    "rate_current": 0.19,
    "rate_predicted": null,
    "active": true
  },
  {
    "name": "Upper Bukit Timah Shell Recharge",
    "latitude": 1.3384474506674329,
    "longitude": 103.7769100419015,
    "address": "35 Upper Bukit Timah Rd, Singapore 588166",
    "currently_open": true,
    "pv_current_in": 0,
    "pv_energy_level": 0,
    "rate_current": 0.32,
    "rate_predicted": null,
    "active": true
  },
  {
    "name": "Charge+ (in operation) (Coming Soon)",
    "latitude": 1.437431,
    "longitude": 103.801205,
    "address": "644A Woodlands Ring Rd, Singapore 731644",
    "currently_open": true,
    "pv_current_in": 0,
    "pv_energy_level": 0,
    "rate_current": 0.36,
    "rate_predicted": null,
    "active": true
  },
  {
    "name": "Techlink",
    "latitude": 1.33594,
    "longitude": 103.905571,
    "address": "31 Kaki Bukit Rd 3, Singapore 417818",
    "currently_open": true,
    "pv_current_in": 0,
    "pv_energy_level": 0,
    "rate_current": 0.8,
    "rate_predicted": null,
    "active": true
  },
  {
    "name": "Sengkang Grand Mall",
    "latitude": 1.3818507,
    "longitude": 103.8927293,
    "address": "70 Compassvale Bow Singapore 544692",
    "currently_open": true,
    "pv_current_in": 0,
    "pv_energy_level": 0,
    "rate_current": 0.19,
    "rate_predicted": null,
    "active": true
  },
  {
    "name": "Up@Robertson Quay",
    "latitude": 1.290676,
    "longitude": 103.837616,
    "address": "75 Robertson Quay, Singapore 238238",
    "currently_open": true,
    "pv_current_in": 0,
    "pv_energy_level": 0,
    "rate_current": 0.17,
    "rate_predicted": null,
    "active": true
  },
  {
    "name": "SP Group: Rivervale Mall",
    "latitude": 1.392337,
    "longitude": 103.904346,
    "address": "11 Rivervale Crescent, Singapore 545082",
    "currently_open": true,
    "pv_current_in": 0,
    "pv_energy_level": 0,
    "rate_current": 0.24,
    "rate_predicted": null,
    "active": true
  },
  {
    "name": "BlueSG open to EVs: Blk 334, Clementi Ave 2",
    "latitude": 1.314714,
    "longitude": 103.768249,
    "address": "334 Clementi Ave 2, Singapore 120334",
    "currently_open": true,
    "pv_current_in": 0,
    "pv_energy_level": 0,
    "rate_current": 0.43,
    "rate_predicted": null,
    "active": true
  },
  {
    "name": "700A Pasir Ris Drive 10",
    "latitude": 1.3807763343736783,
    "longitude": 103.93853976322937,
    "address": "511700",
    "currently_open": true,
    "pv_current_in": 0,
    "pv_energy_level": 0,
    "rate_current": 0.23,
    "rate_predicted": null,
    "active": true
  },
  {
    "name": "Caltex Jurong spring",
    "latitude": 1.349641,
    "longitude": 103.71487,
    "address": "100 Jurong West Ave 1, Singapore 649519",
    "currently_open": true,
    "pv_current_in": 0,
    "pv_energy_level": 0,
    "rate_current": 0.2,
    "rate_predicted": null,
    "active": true
  },
  {
    "name": "LHN Energy Phoenix Park",
    "latitude": 1.29804,
    "longitude": 103.816568,
    "address": "318 Tanglin Rd, Singapore 247979",
    "currently_open": true,
    "pv_current_in": 0,
    "pv_energy_level": 0,
    "rate_current": 0.23,
    "rate_predicted": null,
    "active": true
  },
  {
    "name": "National Heart Center",
    "latitude": 1.281513,
    "longitude": 103.836831,
    "address": "17 Third Hospital Avenue, Singapore",
    "currently_open": true,
    "pv_current_in": 0,
    "pv_energy_level": 0,
    "rate_current": 0.21,
    "rate_predicted": null,
    "active": true
  },
  {
    "name": "BlueSG open to EVs: Across 343 Telok Kurau Road",
    "latitude": 1.308638,
    "longitude": 103.912318,
    "address": "21A St. Patrick's Road, Singapore 424143",
    "currently_open": true,
    "pv_current_in": 0,
    "pv_energy_level": 0,
    "rate_current": 0.47,
    "rate_predicted": null,
    "active": true
  },
  {
    "name": "BlueSG open to EVs: Blk 230, Jurong East St 21",
    "latitude": 1.341795,
    "longitude": 103.737547,
    "address": "230 Jurong East Street 21, Singapore 600231",
    "currently_open": true,
    "pv_current_in": 0,
    "pv_energy_level": 0,
    "rate_current": 0.46,
    "rate_predicted": null,
    "active": true
  },
  {
    "name": "Resorts World Sentosa",
    "latitude": 1.257043,
    "longitude": 103.820353,
    "address": "8 Sentosa Gateway, Singapore 098269",
    "currently_open": true,
    "pv_current_in": 0,
    "pv_energy_level": 0,
    "rate_current": 0.21,
    "rate_predicted": null,
    "active": true
  },
  {
    "name": "SP: Vivocity",
    "latitude": 1.264843,
    "longitude": 103.823285,
    "address": "1 HarbourFront Walk, Singapore 098585",
    "currently_open": true,
    "pv_current_in": 0,
    "pv_energy_level": 0,
    "rate_current": 0.12,
    "rate_predicted": null,
    "active": true
  },
  {
    "name": "Connexion",
    "latitude": 1.312553,
    "longitude": 103.854282,
    "address": "1 Farrer Park Station Rd, Singapore 217562",
    "currently_open": true,
    "pv_current_in": 0,
    "pv_energy_level": 0,
    "rate_current": 0.9,
    "rate_predicted": null,
    "active": true
  },
  {
    "name": "GoParkin: Union Gas building",
    "latitude": 1.350622,
    "longitude": 103.89087,
    "address": "89 Defu Lane 10, Singapore 539220",
    "currently_open": true,
    "pv_current_in": 0,
    "pv_energy_level": 0,
    "rate_current": 0.28,
    "rate_predicted": null,
    "active": true
  },
  {
    "name": "Charge+: Defu Industrial City",
    "latitude": 1.3448827324526693,
    "longitude": 103.89675123010906,
    "address": "2 Defu South Street 1",
    "currently_open": true,
    "pv_current_in": 0,
    "pv_energy_level": 0,
    "rate_current": 0.29,
    "rate_predicted": null,
    "active": true
  },
  {
    "name": "ESSO Pioneer",
    "latitude": 1.312940252173984,
    "longitude": 103.68734506001852,
    "address": "19 Pioneer Road S628499",
    "currently_open": true,
    "pv_current_in": 0,
    "pv_energy_level": 0,
    "rate_current": 0.12,
    "rate_predicted": null,
    "active": true
  },
  {
    "name": "The Concourse",
    "latitude": 1.30136,
    "longitude": 103.862236,
    "address": "300 Beach Rd, Singapore 199555",
    "currently_open": true,
    "pv_current_in": 0,
    "pv_energy_level": 0,
    "rate_current": 0.13,
    "rate_predicted": null,
    "active": true
  },
  {
    "name": "BlueSG open to EVs: Blk 854A, Jurong West St 81",
    "latitude": 1.347799,
    "longitude": 103.696657,
    "address": "854A Jurong West Street 81, Singapore 641854",
    "currently_open": true,
    "pv_current_in": 0,
    "pv_energy_level": 0,
    "rate_current": 0.47,
    "rate_predicted": null,
    "active": true
  },
  {
    "name": "BlueSG open to EVs: Blk 265 Yishun St 22",
    "latitude": 1.436903,
    "longitude": 103.838345,
    "address": "266 Yishun Street 22, Singapore 760266",
    "currently_open": true,
    "pv_current_in": 0,
    "pv_energy_level": 0,
    "rate_current": 0.4,
    "rate_predicted": null,
    "active": true
  },
  {
    "name": "Singapore Polytechnic MSCP",
    "latitude": 1.311246,
    "longitude": 103.776681,
    "address": "Dover Road, Commonwealth‎ 13, Singapore",
    "currently_open": true,
    "pv_current_in": 0,
    "pv_energy_level": 0,
    "rate_current": 0.26,
    "rate_predicted": null,
    "active": true
  },
  {
    "name": "Autobacs Ubi",
    "latitude": 1.33314,
    "longitude": 103.896672,
    "address": "10 Ubi View, Singapore 408543",
    "currently_open": true,
    "pv_current_in": 0,
    "pv_energy_level": 0,
    "rate_current": 0.12,
    "rate_predicted": null,
    "active": true
  },
  {
    "name": "KED ENERGY PTE LTD",
    "latitude": 1.3363712654194329,
    "longitude": 103.75465851277113,
    "address": "48 Toh Guan Rd E, Singapore 608586",
    "currently_open": true,
    "pv_current_in": 0,
    "pv_energy_level": 0,
    "rate_current": 0.18,
    "rate_predicted": null,
    "active": true
  },
  {
    "name": "CDG Engie: West Coast Park (McDonald’s)",
    "latitude": 1.297562,
    "longitude": 103.763779,
    "address": "71 W Coast Hwy, Singapore 126844",
    "currently_open": true,
    "pv_current_in": 0,
    "pv_energy_level": 0,
    "rate_current": 0.39,
    "rate_predicted": null,
    "active": true
  },
  {
    "name": "Shell",
    "latitude": 1.331795,
    "longitude": 103.888855,
    "address": "255 Paya Lebar Rd, Singapore 409037",
    "currently_open": true,
    "pv_current_in": 0,
    "pv_energy_level": 0,
    "rate_current": 0.5,
    "rate_predicted": null,
    "active": true
  },
  {
    "name": "CDGE: Esso Upper Aljunied",
    "latitude": 1.3322678261427052,
    "longitude": 103.8790348300666,
    "address": "373 Upper Aljunied Rd, Singapore 367859",
    "currently_open": true,
    "pv_current_in": 0,
    "pv_energy_level": 0,
    "rate_current": 0.25,
    "rate_predicted": null,
    "active": true
  },
  {
    "name": "BlueSG open to EVs: Blk 903, Jurong West St 91",
    "latitude": 1.33961,
    "longitude": 103.686232,
    "address": "903 Jurong West Street 91, Singapore 640903",
    "currently_open": true,
    "pv_current_in": 0,
    "pv_energy_level": 0,
    "rate_current": 0.46,
    "rate_predicted": null,
    "active": true
  },
  {
    "name": "BlueSG open to EVs: Blk 117, Commonwealth Drive",
    "latitude": 1.306944,
    "longitude": 103.799533,
    "address": "117 Commonwealth Cres, Singapore",
    "currently_open": true,
    "pv_current_in": 0,
    "pv_energy_level": 0,
    "rate_current": 0.47,
    "rate_predicted": null,
    "active": true
  },
  {
    "name": "UE Square Tower (red zone)",
    "latitude": 1.293274,
    "longitude": 103.84234,
    "address": "205 River Valley Rd, Singapore 238274",
    "currently_open": true,
    "pv_current_in": 0,
    "pv_energy_level": 0,
    "rate_current": 0.26,
    "rate_predicted": null,
    "active": true
  },
  {
    "name": "BlueSG open to EVs: Blk 966A, Hougang Ave 9",
    "latitude": 1.377945,
    "longitude": 103.877754,
    "address": "966A Hougang Avenue 9, Singapore 531966",
    "currently_open": true,
    "pv_current_in": 0,
    "pv_energy_level": 0,
    "rate_current": 0.43,
    "rate_predicted": null,
    "active": true
  },
  {
    "name": "BlueSG open to EVs: Blk 326, Ubi Ave 1",
    "latitude": 1.32726,
    "longitude": 103.904208,
    "address": "327 Ubi Ave 1, Block 327, Singapore 400327",
    "currently_open": true,
    "pv_current_in": 0,
    "pv_energy_level": 0,
    "rate_current": 0.38,
    "rate_predicted": null,
    "active": true
  },
  {
    "name": "BlueSG open to EVs: BLK 853 Yishun Ring Road",
    "latitude": 1.416467,
    "longitude": 103.836745,
    "address": "853 Yishun Ring Road, Singapore 760853",
    "currently_open": true,
    "pv_current_in": 0,
    "pv_energy_level": 0,
    "rate_current": 0.44,
    "rate_predicted": null,
    "active": true
  },
  {
    "name": "BlueSG open to EVs: Blk 513 Yishun Street 51",
    "latitude": 1.415948,
    "longitude": 103.8442,
    "address": "513c Yishun Street 51, Singapore 760513",
    "currently_open": true,
    "pv_current_in": 0,
    "pv_energy_level": 0,
    "rate_current": 0.44,
    "rate_predicted": null,
    "active": true
  },
  {
    "name": "LHN Energy Raeburn Park",
    "latitude": 1.273106,
    "longitude": 103.833155,
    "address": "10 Raeburn Park, Singapore 088702",
    "currently_open": true,
    "pv_current_in": 0,
    "pv_energy_level": 0,
    "rate_current": 0.23,
    "rate_predicted": null,
    "active": true
  },
  {
    "name": "135A Pasir Ris Street 11",
    "latitude": 1.364802,
    "longitude": 103.956863,
    "address": "135A Pasir Ris Street 11",
    "currently_open": true,
    "pv_current_in": 0,
    "pv_energy_level": 0,
    "rate_current": 0.24,
    "rate_predicted": null,
    "active": true
  },
  {
    "name": "SP Group: Jewel Changi Airport",
    "latitude": 1.360699,
    "longitude": 103.989603,
    "address": "78 Airport Boulevard Singapore 819666",
    "currently_open": true,
    "pv_current_in": 0,
    "pv_energy_level": 0,
    "rate_current": 0.3,
    "rate_predicted": null,
    "active": true
  },
  {
    "name": "Tanah Merah Country Club Tampines Course",
    "latitude": 1.3270196096163687,
    "longitude": 103.96994161767903,
    "address": "151 Xilin Avenue",
    "currently_open": true,
    "pv_current_in": 0,
    "pv_energy_level": 0,
    "rate_current": 0.4,
    "rate_predicted": null,
    "active": true
  },
  {
    "name": "Mapletree",
    "latitude": 1.319214800107794,
    "longitude": 103.6882628000002,
    "address": "21 benoi sector",
    "currently_open": true,
    "pv_current_in": 0,
    "pv_energy_level": 0,
    "rate_current": 0.9,
    "rate_predicted": null,
    "active": true
  },
  {
    "name": "SPC Bukit Batok",
    "latitude": 1.3432427908352402,
    "longitude": 103.75834370192821,
    "address": "50 Bukit Batok East Ave 3, Singapore 659879",
    "currently_open": true,
    "pv_current_in": 0,
    "pv_energy_level": 0,
    "rate_current": 0.15,
    "rate_predicted": null,
    "active": true
  },
  {
    "name": "Expo Carpark D",
    "latitude": 1.3339762545044767,
    "longitude": 103.95838708806289,
    "address": "1 Expo drive ",
    "currently_open": true,
    "pv_current_in": 0,
    "pv_energy_level": 0,
    "rate_current": 0.14,
    "rate_predicted": null,
    "active": true
  },
  {
    "name": "CDG 787A Choa Chu Kang Dr",
    "latitude": 1.3951133955580453,
    "longitude": 103.74766113446626,
    "address": "787A Choa Chu Kang Dr, 新加坡 680787",
    "currently_open": true,
    "pv_current_in": 0,
    "pv_energy_level": 0,
    "rate_current": 0.25,
    "rate_predicted": null,
    "active": true
  },
  {
    "name": "LHN Energy",
    "latitude": 1.372804,
    "longitude": 103.763206,
    "address": "794 Upper Bukit Timah Road",
    "currently_open": true,
    "pv_current_in": 0,
    "pv_energy_level": 0,
    "rate_current": 0.1,
    "rate_predicted": null,
    "active": true
  },
  {
    "name": "CDGE: 117 Alkaff Crescent",
    "latitude": 1.3368648834995271,
    "longitude": 103.87302016909817,
    "address": "117 Alkaff Cres, Singapore 341115",
    "currently_open": true,
    "pv_current_in": 0,
    "pv_energy_level": 0,
    "rate_current": 0.25,
    "rate_predicted": null,
    "active": true
  },
  {
    "name": "IKEA Tampines",
    "latitude": 1.373907,
    "longitude": 103.932551,
    "address": "60 Tampines North Drive 2, Singapore 528764",
    "currently_open": true,
    "pv_current_in": 0,
    "pv_energy_level": 0,
    "rate_current": 0.13,
    "rate_predicted": null,
    "active": true
  },
  {
    "name": "BlueSG open to EVs: Blk 157 Ang Mo Kio Ave 4",
    "latitude": 1.375126,
    "longitude": 103.839276,
    "address": "157 Ang Mo Kio Avenue 4, Singapore 56",
    "currently_open": true,
    "pv_current_in": 0,
    "pv_energy_level": 0,
    "rate_current": 0.44,
    "rate_predicted": null,
    "active": true
  },
  {
    "name": "Charge+: 220 Hougang Street 21",
    "latitude": 1.356983,
    "longitude": 103.884404,
    "address": "220 Hougang St 21",
    "currently_open": true,
    "pv_current_in": 0,
    "pv_energy_level": 0,
    "rate_current": 0.3,
    "rate_predicted": null,
    "active": true
  },
  {
    "name": "BlueSG open to EVs: 52 Sims Place",
    "latitude": 1.316535,
    "longitude": 103.880084,
    "address": "52 Sims Pl, Singapore 380052",
    "currently_open": true,
    "pv_current_in": 0,
    "pv_energy_level": 0,
    "rate_current": 0.33,
    "rate_predicted": null,
    "active": true
  },
  {
    "name": "bluecharge@senja link 651",
    "latitude": 1.3868954434701355,
    "longitude": 103.76439869962157,
    "address": "senja link 651 carpark",
    "currently_open": true,
    "pv_current_in": 0,
    "pv_energy_level": 0,
    "rate_current": 0.25,
    "rate_predicted": null,
    "active": true
  },
  {
    "name": "Jit Poh Building",
    "latitude": 1.272962,
    "longitude": 103.842388,
    "address": "19 Keppel Road, Singapore",
    "currently_open": true,
    "pv_current_in": 0,
    "pv_energy_level": 0,
    "rate_current": 0.16,
    "rate_predicted": null,
    "active": true
  },
  {
    "name": "BlueSG open to EVs: Blk 602, Clementi West St 1",
    "latitude": 1.305137,
    "longitude": 103.766255,
    "address": "602 Clementi West Street 1, Singapore 120602",
    "currently_open": true,
    "pv_current_in": 0,
    "pv_energy_level": 0,
    "rate_current": 0.47,
    "rate_predicted": null,
    "active": true
  },
  {
    "name": "CDGEG: Blk 146A Lorong 2 Toa Payoh",
    "latitude": 1.334501,
    "longitude": 103.845655,
    "address": "146A Lor 2 Toa Payoh, Singapore 311146",
    "currently_open": true,
    "pv_current_in": 0,
    "pv_energy_level": 0,
    "rate_current": 0.34,
    "rate_predicted": null,
    "active": true
  },
  {
    "name": "BlueSG open to EVs: Blk 117, Potong Pasir Ave 1",
    "latitude": 1.336562,
    "longitude": 103.863076,
    "address": "114 Potong Pasir Ave 1, Singapore 350114",
    "currently_open": true,
    "pv_current_in": 0,
    "pv_energy_level": 0,
    "rate_current": 0.47,
    "rate_predicted": null,
    "active": true
  },
  {
    "name": "Molek Pine 4 (3.7 kW AC)",
    "latitude": 1.525273,
    "longitude": 103.784371,
    "address": "Jalan Molek 1/27, 81750‎ Pasir Gudang‎ Johor, Maleisië",
    "currently_open": true,
    "pv_current_in": 0,
    "pv_energy_level": 0,
    "rate_current": 0.24,
    "rate_predicted": null,
    "active": true
  },
  {
    "name": "Sheraton Towers",
    "latitude": 1.311664,
    "longitude": 103.83638,
    "address": "39 Scotts Rd, Singapore 228230",
    "currently_open": true,
    "pv_current_in": 0,
    "pv_energy_level": 0,
    "rate_current": 0.15,
    "rate_predicted": null,
    "active": true
  },
  {
    "name": "CDG EV Charger",
    "latitude": 1.35583,
    "longitude": 103.844308,
    "address": "290A Bishan St 24",
    "currently_open": true,
    "pv_current_in": 0,
    "pv_energy_level": 0,
    "rate_current": 0.14,
    "rate_predicted": null,
    "active": true
  },
  {
    "name": "BlueSG open to EVs: Bedok South Ave 3, behind blk 69",
    "latitude": 1.319527,
    "longitude": 103.942997,
    "address": "behind blk 69, bedok south ave 3",
    "currently_open": true,
    "pv_current_in": 0,
    "pv_energy_level": 0,
    "rate_current": 0.52,
    "rate_predicted": null,
    "active": true
  },
  {
    "name": "D'Arena@Upper Jurong by EVone Charging",
    "latitude": 1.3294741,
    "longitude": 103.6822694,
    "address": "511 Upper Jurong Rd, Singapore 638366",
    "currently_open": true,
    "pv_current_in": 0,
    "pv_energy_level": 0,
    "rate_current": 0.38,
    "rate_predicted": null,
    "active": true
  },
  {
    "name": "BlueSG open to EVs: 37 Chai Chee Street",
    "latitude": 1.325191,
    "longitude": 103.925778,
    "address": "36 Chai Chee Avenue, Singapore 461037",
    "currently_open": true,
    "pv_current_in": 0,
    "pv_energy_level": 0,
    "rate_current": 0.39,
    "rate_predicted": null,
    "active": true
  },
  {
    "name": "CDG Engie - 274A Toh Guan Road",
    "latitude": 1.341565,
    "longitude": 103.747455,
    "address": "274A Toh Guan Rd, Singapore 600276",
    "currently_open": true,
    "pv_current_in": 0,
    "pv_energy_level": 0,
    "rate_current": 0.3,
    "rate_predicted": null,
    "active": true
  },
  {
    "name": "BlueSG open to EVs: 420 Tampines St 41",
    "latitude": 1.357784,
    "longitude": 103.947142,
    "address": "419 Tampines Street 41, Singapore 529204",
    "currently_open": true,
    "pv_current_in": 0,
    "pv_energy_level": 0,
    "rate_current": 0.38,
    "rate_predicted": null,
    "active": true
  },
  {
    "name": "CDGE: Singapore Botanic Gardens Botany Centre",
    "latitude": 1.3084224,
    "longitude": 103.8182032,
    "address": "1 Cluny Rd, Singapore 259569",
    "currently_open": true,
    "pv_current_in": 0,
    "pv_energy_level": 0,
    "rate_current": 0.45,
    "rate_predicted": null,
    "active": true
  },
  {
    "name": "Charge+: 633 Punggol Drive",
    "latitude": 1.400696,
    "longitude": 103.913915,
    "address": "633 Punggol Dr, Singapore 820633",
    "currently_open": true,
    "pv_current_in": 0,
    "pv_energy_level": 0,
    "rate_current": 0.26,
    "rate_predicted": null,
    "active": true
  },
  {
    "name": "BlueSG open to EVs: Blk 688, Hougang St 61",
    "latitude": 1.375892,
    "longitude": 103.885486,
    "address": "688 Hougang Street 61, Block 688, Singapore 530688",
    "currently_open": true,
    "pv_current_in": 0,
    "pv_energy_level": 0,
    "rate_current": 0.42,
    "rate_predicted": null,
    "active": true
  },
  {
    "name": "Shell Recharge Tanglin Mall",
    "latitude": 1.305026,
    "longitude": 103.823851,
    "address": "163, Tanglin Road, 247933",
    "currently_open": true,
    "pv_current_in": 0,
    "pv_energy_level": 0,
    "rate_current": 0.27,
    "rate_predicted": null,
    "active": true
  },
  {
    "name": "BlueSG open to EVs: Blk 769 Yishun Ave 3",
    "latitude": 1.424279,
    "longitude": 103.833275,
    "address": "769 Yishun Avenue 3, Singapore 760769",
    "currently_open": true,
    "pv_current_in": 0,
    "pv_energy_level": 0,
    "rate_current": 0.4,
    "rate_predicted": null,
    "active": true
  },
  {
    "name": "Gardens By The Bay - Bayfront Plaza",
    "latitude": 1.279198,
    "longitude": 103.860073,
    "address": "Unnamed Road, Singapore",
    "currently_open": true,
    "pv_current_in": 0,
    "pv_energy_level": 0,
    "rate_current": 0.35,
    "rate_predicted": null,
    "active": true
  },
  {
    "name": "ChargEco: Block 80 HDB Car Park",
    "latitude": 1.274012010646763,
    "longitude": 103.80735956132412,
    "address": "80 Telok Blangah Street 31, Singapore 102080",
    "currently_open": true,
    "pv_current_in": 0,
    "pv_energy_level": 0,
    "rate_current": 0.31,
    "rate_predicted": null,
    "active": true
  },
  {
    "name": "NUS Stephen Riady Center",
    "latitude": 1.304036,
    "longitude": 103.77304,
    "address": "2 College Ave West, Singapore",
    "currently_open": true,
    "pv_current_in": 0,
    "pv_energy_level": 0,
    "rate_current": 0.24,
    "rate_predicted": null,
    "active": true
  },
  {
    "name": "Willing Hearts",
    "latitude": 1.3142482784278031,
    "longitude": 103.90704547618223,
    "address": "1 LorJ Telok Kurau",
    "currently_open": true,
    "pv_current_in": 0,
    "pv_energy_level": 0,
    "rate_current": 0.14,
    "rate_predicted": null,
    "active": true
  },
  {
    "name": "Shell Tampines",
    "latitude": 1.349178,
    "longitude": 103.948016,
    "address": "9 Tampines Ave 2, Singapore 529731",
    "currently_open": true,
    "pv_current_in": 0,
    "pv_energy_level": 0,
    "rate_current": 0.14,
    "rate_predicted": null,
    "active": true
  },
  {
    "name": "Marina Bay Sands",
    "latitude": 1.285604,
    "longitude": 103.861107,
    "address": "10 Bayfront Ave, Singapore 018956",
    "currently_open": true,
    "pv_current_in": 0,
    "pv_energy_level": 0,
    "rate_current": 0.16,
    "rate_predicted": null,
    "active": true
  },
  {
    "name": "Bluecharge: Blk 32 Telok Blangah Rise",
    "latitude": 1.2731828240010936,
    "longitude": 103.82100548832092,
    "address": "Telok Blangah Rise, Mount Faber Grace Park, Singapore",
    "currently_open": true,
    "pv_current_in": 0,
    "pv_energy_level": 0,
    "rate_current": 0.37,
    "rate_predicted": null,
    "active": true
  },
  {
    "name": "Shell Braddell",
    "latitude": 1.3449,
    "longitude": 103.864464,
    "address": "110 Braddell Rd, Singapore 359914",
    "currently_open": true,
    "pv_current_in": 0,
    "pv_energy_level": 0,
    "rate_current": 0.14,
    "rate_predicted": null,
    "active": true
  },
  {
    "name": "BlueSG open to EVs: Blk 809, Yishun Ring Road",
    "latitude": 1.416877,
    "longitude": 103.83055,
    "address": "809 Yishun Ring Rd, Singapore 760809",
    "currently_open": true,
    "pv_current_in": 0,
    "pv_energy_level": 0,
    "rate_current": 0.45,
    "rate_predicted": null,
    "active": true
  },
  {
    "name": "SP Group: Marina Square",
    "latitude": 1.29179,
    "longitude": 103.857758,
    "address": "Raffles Blvd, Singapore",
    "currently_open": true,
    "pv_current_in": 0,
    "pv_energy_level": 0,
    "rate_current": 0.23,
    "rate_predicted": null,
    "active": true
  },
  {
    "name": "Tampines Plaza",
    "latitude": 1.353142,
    "longitude": 103.943078,
    "address": "3 Tampines Central 1, Singapore 529540",
    "currently_open": true,
    "pv_current_in": 0,
    "pv_energy_level": 0,
    "rate_current": 0.14,
    "rate_predicted": null,
    "active": true
  },
  {
    "name": "BlueSG open to EVs: Blk 103, Jalan Rajah",
    "latitude": 1.327412,
    "longitude": 103.852496,
    "address": "103 Jln Rajah, Block 103, Singapore 321103",
    "currently_open": true,
    "pv_current_in": 0,
    "pv_energy_level": 0,
    "rate_current": 0.4,
    "rate_predicted": null,
    "active": true
  },
  {
    "name": "Lee Kong Chian School of Medicine",
    "latitude": 1.321851,
    "longitude": 103.848984,
    "address": "11 Mandalay Rd, Singapore",
    "currently_open": true,
    "pv_current_in": 0,
    "pv_energy_level": 0,
    "rate_current": 0.33,
    "rate_predicted": null,
    "active": true
  },
  {
    "name": "Charge+: 519A Woodlands Drive 14",
    "latitude": 1.4344276124617934,
    "longitude": 103.79231706261635,
    "address": "519A Woodlands Drive 14, Singapore 731519",
    "currently_open": true,
    "pv_current_in": 0,
    "pv_energy_level": 0,
    "rate_current": 0.32,
    "rate_predicted": null,
    "active": true
  },
  {
    "name": "Shell Recharge Pasir Ris",
    "latitude": 1.365821,
    "longitude": 103.966996,
    "address": "1 New Loyang Link, Singapore 506931",
    "currently_open": true,
    "pv_current_in": 0,
    "pv_energy_level": 0,
    "rate_current": 0.24,
    "rate_predicted": null,
    "active": true
  },
  {
    "name": "Tiong Bahru Plaza",
    "latitude": 1.2862842,
    "longitude": 103.8277824,
    "address": "355 Jln Bukit Ho Swee, Singapore 169567",
    "currently_open": true,
    "pv_current_in": 0,
    "pv_energy_level": 0,
    "rate_current": 0.17,
    "rate_predicted": null,
    "active": true
  },
  {
    "name": "Charge+: 226 Sumang Lane",
    "latitude": 1.4029418,
    "longitude": 103.8934653,
    "address": "226 Sumang Lane, Singapore 820226",
    "currently_open": true,
    "pv_current_in": 0,
    "pv_energy_level": 0,
    "rate_current": 0.24,
    "rate_predicted": null,
    "active": true
  },
  {
    "name": "BlueSG open to EVs: Blk 537, Bt Batok St 52",
    "latitude": 1.354886,
    "longitude": 103.751171,
    "address": "539 Bukit Batok Street 52, Block 539, Singapore 650539",
    "currently_open": true,
    "pv_current_in": 0,
    "pv_energy_level": 0,
    "rate_current": 0.43,
    "rate_predicted": null,
    "active": true
  },
  {
    "name": "65A Kallang Bahru MSCP",
    "latitude": 1.3198411,
    "longitude": 103.8690631,
    "address": "65A Kallang Bahru S(331065)",
    "currently_open": true,
    "pv_current_in": 0,
    "pv_energy_level": 0,
    "rate_current": 0.22,
    "rate_predicted": null,
    "active": true
  },
  {
    "name": "Bluecharge: 50 Beach View, Basement",
    "latitude": 1.251294,
    "longitude": 103.818745,
    "address": "50 Beach View, Singapore 098604",
    "currently_open": true,
    "pv_current_in": 0,
    "pv_energy_level": 0,
    "rate_current": 0.35,
    "rate_predicted": null,
    "active": true
  },
  {
    "name": "BlueSG open to EVs: Blk 329, Anchorvale St",
    "latitude": 1.396432,
    "longitude": 103.88939,
    "address": "329 Anchorvale St, Singapore 540329",
    "currently_open": true,
    "pv_current_in": 0,
    "pv_energy_level": 0,
    "rate_current": 0.42,
    "rate_predicted": null,
    "active": true
  },
  {
    "name": "CDGE: Autobay @ Kakit Bukit",
    "latitude": 1.3416647,
    "longitude": 103.9125865,
    "address": "1 Kakit Bukit Ave 6 ",
    "currently_open": true,
    "pv_current_in": 0,
    "pv_energy_level": 0,
    "rate_current": 0.27,
    "rate_predicted": null,
    "active": true
  },
  {
    "name": "CDGE: 635A Jurong West Street Car Park",
    "latitude": 1.342288,
    "longitude": 103.69866,
    "address": "635A Jurong West Street 65, Singapore 641635",
    "currently_open": true,
    "pv_current_in": 0,
    "pv_energy_level": 0,
    "rate_current": 0.38,
    "rate_predicted": null,
    "active": true
  },
  {
    "name": "Storhub Toa Payoh",
    "latitude": 1.333221,
    "longitude": 103.852334,
    "address": "615 Lrg. 5 Toa Payoh, Singapore 319457",
    "currently_open": true,
    "pv_current_in": 0,
    "pv_energy_level": 0,
    "rate_current": 0.17,
    "rate_predicted": null,
    "active": true
  },
  {
    "name": "Capella Hotel Solacharge",
    "latitude": 1.2496291,
    "longitude": 103.8243003,
    "address": "1 The Knolls, Sentosa Island, 098297",
    "currently_open": true,
    "pv_current_in": 0,
    "pv_energy_level": 0,
    "rate_current": 0.24,
    "rate_predicted": null,
    "active": true
  },
  {
    "name": "Shell Paya Lebar",
    "latitude": 1.322042,
    "longitude": 103.891624,
    "address": "98 Paya Lebar Rd, Singapore 409008",
    "currently_open": true,
    "pv_current_in": 0,
    "pv_energy_level": 0,
    "rate_current": 0.16,
    "rate_predicted": null,
    "active": true
  },
  {
    "name": "Bluecharge: 534, Bedok North St 3",
    "latitude": 1.334142,
    "longitude": 103.927754,
    "address": "534 Bedok North Street 3, Singapore 460534",
    "currently_open": true,
    "pv_current_in": 0,
    "pv_energy_level": 0,
    "rate_current": 0.33,
    "rate_predicted": null,
    "active": true
  },
  {
    "name": "The Siemens Center",
    "latitude": 1.328057,
    "longitude": 103.870776,
    "address": "62 MacPherson Rd, Singapore",
    "currently_open": true,
    "pv_current_in": 0,
    "pv_energy_level": 0,
    "rate_current": 0.18,
    "rate_predicted": null,
    "active": true
  },
  {
    "name": "AA CENTRE",
    "latitude": 1.289876,
    "longitude": 103.812956,
    "address": "2 Kung Chong Rd, Singapore 159140",
    "currently_open": true,
    "pv_current_in": 0,
    "pv_energy_level": 0,
    "rate_current": 0.9,
    "rate_predicted": null,
    "active": true
  },
  {
    "name": "CDGE: Sin Ming Autocity",
    "latitude": 1.3592956,
    "longitude": 103.8392412,
    "address": "160 Sin Ming Drive",
    "currently_open": true,
    "pv_current_in": 0,
    "pv_energy_level": 0,
    "rate_current": 0.23,
    "rate_predicted": null,
    "active": true
  },
  {
    "name": "CDG Engie- Blk 451 Bukit Batok West Ave 6",
    "latitude": 1.353007,
    "longitude": 103.743458,
    "address": "Blk 451 Bukit Batok West Ave 6",
    "currently_open": true,
    "pv_current_in": 0,
    "pv_energy_level": 0,
    "rate_current": 0.41,
    "rate_predicted": null,
    "active": true
  },
  {
    "name": "BlueSG open to EVs: Blk 609, Bedok Reservoir Road",
    "latitude": 1.33138,
    "longitude": 103.912313,
    "address": "610 Bedok Reservoir Rd, Block 610, Singapore 470610",
    "currently_open": true,
    "pv_current_in": 0,
    "pv_energy_level": 0,
    "rate_current": 0.49,
    "rate_predicted": null,
    "active": true
  },
  {
    "name": "BlueSG open to EVs: Blk 108 Simei St 1",
    "latitude": 1.343233,
    "longitude": 103.950837,
    "address": "108 Simei Street 1, Singapore 520108",
    "currently_open": true,
    "pv_current_in": 0,
    "pv_energy_level": 0,
    "rate_current": 0.38,
    "rate_predicted": null,
    "active": true
  },
  {
    "name": "SP Group: Caltex Changi",
    "latitude": 1.316149,
    "longitude": 103.900084,
    "address": "78 Changi Rd, Singapore 419714",
    "currently_open": true,
    "pv_current_in": 0,
    "pv_energy_level": 0,
    "rate_current": 0.23,
    "rate_predicted": null,
    "active": true
  },
  {
    "name": "Charge+: BLK 315 MSCP Y65M",
    "latitude": 1.432573,
    "longitude": 103.841762,
    "address": "315 Yishun Ave 9, Block 315 Carpark, Singapore",
    "currently_open": true,
    "pv_current_in": 0,
    "pv_energy_level": 0,
    "rate_current": 0.26,
    "rate_predicted": null,
    "active": true
  },
  {
    "name": "Charge+: 431 Yishun Ave 1, Deck 5",
    "latitude": 1.420133,
    "longitude": 103.847638,
    "address": "431c Yishun Ave 1, Singapore",
    "currently_open": true,
    "pv_current_in": 0,
    "pv_energy_level": 0,
    "rate_current": 0.33,
    "rate_predicted": null,
    "active": true
  },
  {
    "name": "CDG: 183 Boon Lay MSCP",
    "latitude": 1.349273760519521,
    "longitude": 103.70946689980984,
    "address": "183 Boon Lay Ave, Singapore 641183",
    "currently_open": true,
    "pv_current_in": 0,
    "pv_energy_level": 0,
    "rate_current": 0.22,
    "rate_predicted": null,
    "active": true
  },
  {
    "name": "CDG Engie - 311, Clementi Ave 4",
    "latitude": 1.319082,
    "longitude": 103.765158,
    "address": "311 Clementi Ave 4, Singapore 120311",
    "currently_open": true,
    "pv_current_in": 0,
    "pv_energy_level": 0,
    "rate_current": 0.31,
    "rate_predicted": null,
    "active": true
  },
  {
    "name": "BlueSG open to EVs: Blk 590 Ang Mo Kio St 51",
    "latitude": 1.371474,
    "longitude": 103.853217,
    "address": "590 Ang Mo Kio Street 51, Singapore",
    "currently_open": true,
    "pv_current_in": 0,
    "pv_energy_level": 0,
    "rate_current": 0.44,
    "rate_predicted": null,
    "active": true
  },
  {
    "name": "CDG Engie - 85 Dawson Road",
    "latitude": 1.29541,
    "longitude": 103.809262,
    "address": "85 Dawson Road",
    "currently_open": true,
    "pv_current_in": 0,
    "pv_energy_level": 0,
    "rate_current": 0.26,
    "rate_predicted": null,
    "active": true
  },
  {
    "name": "116 Jalan Tenteram MSCP",
    "latitude": 1.3277547,
    "longitude": 103.8611462,
    "address": "116 Jalan Tenteram",
    "currently_open": true,
    "pv_current_in": 0,
    "pv_energy_level": 0,
    "rate_current": 0.23,
    "rate_predicted": null,
    "active": true
  },
  {
    "name": "BlueSG open to EVs: Blk 203, Compassvale Road",
    "latitude": 1.387004,
    "longitude": 103.895935,
    "address": "Blk 203, Singapore",
    "currently_open": true,
    "pv_current_in": 0,
    "pv_energy_level": 0,
    "rate_current": 0.45,
    "rate_predicted": null,
    "active": true
  },
  {
    "name": "Zhongshan Mall",
    "latitude": 1.327329,
    "longitude": 103.846394,
    "address": "20 Ah Hood Rd, Singapore",
    "currently_open": true,
    "pv_current_in": 0,
    "pv_energy_level": 0,
    "rate_current": 0.14,
    "rate_predicted": null,
    "active": true
  },
  {
    "name": "Shell",
    "latitude": 1.324259,
    "longitude": 103.842094,
    "address": "324 Thomson Rd, Singapore 307672",
    "currently_open": true,
    "pv_current_in": 0,
    "pv_energy_level": 0,
    "rate_current": 0.5,
    "rate_predicted": null,
    "active": true
  },
  {
    "name": "CDG Blk 289H Bukit Batok Street 25",
    "latitude": 1.344397052573844,
    "longitude": 103.76003090089257,
    "address": "Blk 289H Bukit Batok Street 25, 新加坡 657289",
    "currently_open": true,
    "pv_current_in": 0,
    "pv_energy_level": 0,
    "rate_current": 0.34,
    "rate_predicted": null,
    "active": true
  },
  {
    "name": "BlueCharge: 425 Bedok North Road",
    "latitude": 1.329215,
    "longitude": 103.929551,
    "address": "425 Bedok Road Singapore 460425 ",
    "currently_open": true,
    "pv_current_in": 0,
    "pv_energy_level": 0,
    "rate_current": 0.32,
    "rate_predicted": null,
    "active": true
  },
  {
    "name": "CDG Engie - Blk 810 Choa Chu Kang Ave 7",
    "latitude": 1.373813,
    "longitude": 103.746674,
    "address": "810 Choa Chu Kang Ave 7, Singapore 681810",
    "currently_open": true,
    "pv_current_in": 0,
    "pv_energy_level": 0,
    "rate_current": 0.39,
    "rate_predicted": null,
    "active": true
  },
  {
    "name": "870B Tampines St 86 (MSCP)",
    "latitude": 1.356331,
    "longitude": 103.931039,
    "address": "870B Tampines Street 86, Singapore 522870",
    "currently_open": true,
    "pv_current_in": 0,
    "pv_energy_level": 0,
    "rate_current": 0.26,
    "rate_predicted": null,
    "active": true
  },
  {
    "name": "Charge+: Blk 440 (MSCP) Fernvale Link",
    "latitude": 1.392986,
    "longitude": 103.878422,
    "address": "440 Fernvale Link, Singapore 790440",
    "currently_open": true,
    "pv_current_in": 0,
    "pv_energy_level": 0,
    "rate_current": 0.37,
    "rate_predicted": null,
    "active": true
  },
  {
    "name": "Jurong Point",
    "latitude": 1.339342,
    "longitude": 103.705387,
    "address": "1 Jurong West Central 2, Jurong Point, Singapore 648886",
    "currently_open": true,
    "pv_current_in": 0,
    "pv_energy_level": 0,
    "rate_current": 0.12,
    "rate_predicted": null,
    "active": true
  },
  {
    "name": "20 Ayer Rajah Crescent, Technopreneur Centre",
    "latitude": 1.295231,
    "longitude": 103.789842,
    "address": "20 Ayer Rajah Crescent, Singapore",
    "currently_open": true,
    "pv_current_in": 0,
    "pv_energy_level": 0,
    "rate_current": 0.44,
    "rate_predicted": null,
    "active": true
  },
  {
    "name": "The Capricorn Underground Car Park",
    "latitude": 1.289639,
    "longitude": 103.778957,
    "address": "1 Science Park Rd, Singapore 117528",
    "currently_open": true,
    "pv_current_in": 0,
    "pv_energy_level": 0,
    "rate_current": 0.34,
    "rate_predicted": null,
    "active": true
  },
  {
    "name": "Storhub Jurong East by EVone Charging",
    "latitude": 1.3392365,
    "longitude": 103.7493724,
    "address": "3C Toh Guan Road East",
    "currently_open": true,
    "pv_current_in": 0,
    "pv_energy_level": 0,
    "rate_current": 0.37,
    "rate_predicted": null,
    "active": true
  },
  {
    "name": "PE Drive Charging Station",
    "latitude": 1.331391,
    "longitude": 103.89573,
    "address": "52 Ubi Avenue 3, Singapore 408867",
    "currently_open": true,
    "pv_current_in": 0,
    "pv_energy_level": 0,
    "rate_current": 0.25,
    "rate_predicted": null,
    "active": true
  },
  {
    "name": "BlueSG open to EVs: Blk 269, Tampines St 21",
    "latitude": 1.350668,
    "longitude": 103.947558,
    "address": "269 Tampines Street 21, Singapore 520269",
    "currently_open": true,
    "pv_current_in": 0,
    "pv_energy_level": 0,
    "rate_current": 0.43,
    "rate_predicted": null,
    "active": true
  },
  {
    "name": "One@Redhill Centre",
    "latitude": 1.284876,
    "longitude": 103.808552,
    "address": "1 Jln Kilang Barat, Singapore 159345",
    "currently_open": true,
    "pv_current_in": 0,
    "pv_energy_level": 0,
    "rate_current": 0.18,
    "rate_predicted": null,
    "active": true
  },
  {
    "name": "Millenia Walk",
    "latitude": 1.291826,
    "longitude": 103.860199,
    "address": "9 Raffles Boulevard ",
    "currently_open": true,
    "pv_current_in": 0,
    "pv_energy_level": 0,
    "rate_current": 0.13,
    "rate_predicted": null,
    "active": true
  },
  {
    "name": "CDG Teck Whye Ln Blk 118A Carpark",
    "latitude": 1.379520435889066,
    "longitude": 103.74993425995183,
    "address": "118A Teck Whye Ln, Singapore 681118",
    "currently_open": true,
    "pv_current_in": 0,
    "pv_energy_level": 0,
    "rate_current": 0.33,
    "rate_predicted": null,
    "active": true
  },
  {
    "name": "Kim Chuan-Tai Seng by EVone Charging",
    "latitude": 1.33778,
    "longitude": 103.891319,
    "address": "1005 Tai Seng Ave, #01-2576",
    "currently_open": true,
    "pv_current_in": 0,
    "pv_energy_level": 0,
    "rate_current": 0.36,
    "rate_predicted": null,
    "active": true
  },
  {
    "name": "BlueSG open to EVs: Blk 165, Yishun Ring Road",
    "latitude": 1.435556,
    "longitude": 103.831963,
    "address": "165 Yishun Ring Rd, Singapore 760165",
    "currently_open": true,
    "pv_current_in": 0,
    "pv_energy_level": 0,
    "rate_current": 0.45,
    "rate_predicted": null,
    "active": true
  },
  {
    "name": "Pan Pacific Serviced Suites Beach Road",
    "latitude": 1.299576,
    "longitude": 103.860151,
    "address": "7500B Beach Road",
    "currently_open": true,
    "pv_current_in": 0,
    "pv_energy_level": 0,
    "rate_current": 0.38,
    "rate_predicted": null,
    "active": true
  }
]